[{"started_at": "2019-08-01 07:48:19.642000+00:00", "ended_at": "2019-08-01 07:56:20.358000+00:00", "duration": 480, "start_station_id": "523", "start_station_name": "T\u00f8yenbekken", "start_station_description": "\u00d8st for Gr\u00f8nlands Torg", "start_station_latitude": 59.9115945, "start_station_longitude": 10.7617736, "end_station_id": "625", "end_station_name": "Spikersuppa \u00d8st", "end_station_description": "mot Stortingsgata", "end_station_latitude": 59.91336, "end_station_longitude": 10.737663}, {"started_at": "2019-08-01 07:48:34.332000+00:00", "ended_at": "2019-08-01 08:05:57.556000+00:00", "duration": 1043, "start_station_id": "426", "start_station_name": "Gimle Kino", "start_station_description": "nedenfor Frogner Kirke", "start_station_latitude": 59.917202, "start_station_longitude": 10.708339, "end_station_id": "437", "end_station_name": "Sentrum Scene", "end_station_description": "ved Arbeidersamfunnets plass", "end_station_latitude": 59.91546786564256, "end_station_longitude": 10.751140873016311}, {"started_at": "2019-08-01 07:48:39.750000+00:00", "ended_at": "2019-08-01 08:02:28.313000+00:00", "duration": 828, "start_station_id": "506", "start_station_name": "Botanisk Hage vest", "start_station_description": "ved Blytts gate", "start_station_latitude": 59.920073, "start_station_longitude": 10.769035, "end_station_id": "430", "end_station_name": "Spikersuppa Vest", "end_station_description": "mot Stortingsgata", "end_station_latitude": 59.9137965, "end_station_longitude": 10.7358023}, {"started_at": "2019-08-01 07:48:44.991000+00:00", "ended_at": "2019-08-01 08:00:02.144000+00:00", "duration": 677, "start_station_id": "523", "start_station_name": "T\u00f8yenbekken", "start_station_description": "\u00d8st for Gr\u00f8nlands Torg", "start_station_latitude": 59.9115945, "start_station_longitude": 10.7617736, "end_station_id": "430", "end_station_name": "Spikersuppa Vest", "end_station_description": "mot Stortingsgata", "end_station_latitude": 59.9137965, "end_station_longitude": 10.7358023}, {"started_at": "2019-08-01 07:48:46.937000+00:00", "ended_at": "2019-08-01 07:56:19.339000+00:00", "duration": 452, "start_station_id": "523", "start_station_name": "T\u00f8yenbekken", "start_station_description": "\u00d8st for Gr\u00f8nlands Torg", "start_station_latitude": 59.9115945, "start_station_longitude": 10.7617736, "end_station_id": "625", "end_station_name": "Spikersuppa \u00d8st", "end_station_description": "mot Stortingsgata", "end_station_latitude": 59.91336, "end_station_longitude": 10.737663}, {"started_at": "2019-08-01 07:48:52.535000+00:00", "ended_at": "2019-08-01 07:58:54.229000+00:00", "duration": 601, "start_station_id": "493", "start_station_name": "Sofienbergparken nordvest", "start_station_description": "ved Toftes gate", "start_station_latitude": 59.9243639, "start_station_longitude": 10.7615858, "end_station_id": "396", "end_station_name": "Kirkeristen", "end_station_description": "ved Torggata", "end_station_latitude": 59.913032, "end_station_longitude": 10.746681}, {"started_at": "2019-08-01 07:48:59.656000+00:00", "ended_at": "2019-08-01 08:00:19.960000+00:00", "duration": 680, "start_station_id": "523", "start_station_name": "T\u00f8yenbekken", "start_station_description": "\u00d8st for Gr\u00f8nlands Torg", "start_station_latitude": 59.9115945, "start_station_longitude": 10.7617736, "end_station_id": "430", "end_station_name": "Spikersuppa Vest", "end_station_description": "mot Stortingsgata", "end_station_latitude": 59.9137965, "end_station_longitude": 10.7358023}, {"started_at": "2019-08-01 07:49:05.343000+00:00", "ended_at": "2019-08-01 07:54:08.628000+00:00", "duration": 303, "start_station_id": "535", "start_station_name": "Uranienborgveien", "start_station_description": "Vest for Slottsparken", "start_station_latitude": 59.9200421, "start_station_longitude": 10.726634, "end_station_id": "494", "end_station_name": "R\u00e5dhusbrygge 4", "end_station_description": "ved Nesoddb\u00e5ten", "end_station_latitude": 59.9108469, "end_station_longitude": 10.7303766}, {"started_at": "2019-08-01 07:49:13.282000+00:00", "ended_at": "2019-08-01 08:05:40.194000+00:00", "duration": 986, "start_station_id": "480", "start_station_name": "Helga Helgesens plass", "start_station_description": "langs Gr\u00f8nlandsleiret", "start_station_latitude": 59.9121109, "start_station_longitude": 10.7661939, "end_station_id": "430", "end_station_name": "Spikersuppa Vest", "end_station_description": "mot Stortingsgata", "end_station_latitude": 59.9137965, "end_station_longitude": 10.7358023}, {"started_at": "2019-08-01 07:49:18.359000+00:00", "ended_at": "2019-08-01 08:01:14.384000+00:00", "duration": 716, "start_station_id": "410", "start_station_name": "Landstads gate", "start_station_description": "ved Uelands gate", "start_station_latitude": 59.929005, "start_station_longitude": 10.7496755, "end_station_id": "611", "end_station_name": "Bankplassen", "end_station_description": "ved Kirkegata", "end_station_latitude": 59.908454, "end_station_longitude": 10.741869}, {"started_at": "2019-08-01 07:49:28.626000+00:00", "ended_at": "2019-08-01 07:58:26.500000+00:00", "duration": 537, "start_station_id": "737", "start_station_name": "Munkegata trikkestopp", "start_station_description": "langs Oslo gate", "start_station_latitude": 59.908255, "start_station_longitude": 10.7678, "end_station_id": "424", "end_station_name": "Birkelunden", "end_station_description": "langs Seilduksgata", "end_station_latitude": 59.9256113, "end_station_longitude": 10.760926}, {"started_at": "2019-08-01 07:49:36.889000+00:00", "ended_at": "2019-08-01 08:01:08.315000+00:00", "duration": 691, "start_station_id": "440", "start_station_name": "Lakkegata", "start_station_description": "ved Sundtkvartalet", "start_station_latitude": 59.9172088, "start_station_longitude": 10.7622135, "end_station_id": "390", "end_station_name": "Saga Kino", "end_station_description": "i Olav Vs gate", "end_station_latitude": 59.914002, "end_station_longitude": 10.732869}, {"started_at": "2019-08-01 07:49:58.515000+00:00", "ended_at": "2019-08-01 08:03:30.132000+00:00", "duration": 811, "start_station_id": "409", "start_station_name": "John Colletts plass", "start_station_description": "ved Sognsveien", "start_station_latitude": 59.940398, "start_station_longitude": 10.730036, "end_station_id": "437", "end_station_name": "Sentrum Scene", "end_station_description": "ved Arbeidersamfunnets plass", "end_station_latitude": 59.91546786564256, "end_station_longitude": 10.751140873016311}, {"started_at": "2019-08-01 07:49:59.925000+00:00", "ended_at": "2019-08-01 07:54:07.470000+00:00", "duration": 247, "start_station_id": "558", "start_station_name": "Dokkveien", "start_station_description": "ved St\u00f8perigata", "start_station_latitude": 59.910974, "start_station_longitude": 10.7277001, "end_station_id": "611", "end_station_name": "Bankplassen", "end_station_description": "ved Kirkegata", "end_station_latitude": 59.908454, "end_station_longitude": 10.741869}, {"started_at": "2019-08-01 07:50:14.546000+00:00", "ended_at": "2019-08-01 07:53:50.119000+00:00", "duration": 215, "start_station_id": "626", "start_station_name": "Drammensveien", "start_station_description": "ved Ingar Nilsens vei", "start_station_latitude": 59.9204038, "start_station_longitude": 10.691147, "end_station_id": "484", "end_station_name": "Karenlyst all\u00e9", "end_station_description": "utenfor Handelsbanken", "end_station_latitude": 59.92033, "end_station_longitude": 10.683814}, {"started_at": "2019-08-01 07:50:15.151000+00:00", "ended_at": "2019-08-01 08:01:01.442000+00:00", "duration": 646, "start_station_id": "427", "start_station_name": "Briskeby", "start_station_description": "ved Uranienborg skole", "start_station_latitude": 59.920218, "start_station_longitude": 10.717978, "end_station_id": "480", "end_station_name": "Helga Helgesens plass", "end_station_description": "langs Gr\u00f8nlandsleiret", "end_station_latitude": 59.9121109, "end_station_longitude": 10.7661939}, {"started_at": "2019-08-01 07:50:16.490000+00:00", "ended_at": "2019-08-01 07:58:29.376000+00:00", "duration": 492, "start_station_id": "581", "start_station_name": "Jordalgata", "start_station_description": "mellom bussholdeplassene p\u00e5 Galgeberg", "start_station_latitude": 59.908227, "start_station_longitude": 10.781088, "end_station_id": "527", "end_station_name": "Biskop Gunnerus' gate", "end_station_description": "ved Oslo City", "end_station_latitude": 59.9123341, "end_station_longitude": 10.752292}, {"started_at": "2019-08-01 07:50:29.111000+00:00", "ended_at": "2019-08-01 07:57:36.923000+00:00", "duration": 427, "start_station_id": "739", "start_station_name": "Hammersborg Torg", "start_station_description": "i M\u00f8llergata", "start_station_latitude": 59.916536, "start_station_longitude": 10.749162, "end_station_id": "563", "end_station_name": "Huitfeldts gate", "end_station_description": "mellom Cort Adelers gate og Observatoriegata", "end_station_latitude": 59.9126844, "end_station_longitude": 10.7229003}, {"started_at": "2019-08-01 07:50:35.305000+00:00", "ended_at": "2019-08-01 07:57:20.694000+00:00", "duration": 405, "start_station_id": "409", "start_station_name": "John Colletts plass", "start_station_description": "ved Sognsveien", "start_station_latitude": 59.940398, "start_station_longitude": 10.730036, "end_station_id": "502", "end_station_name": "Ullev\u00e5l sykehus", "end_station_description": "i Kirkeveien", "end_station_latitude": 59.9360307, "end_station_longitude": 10.7364516}, {"started_at": "2019-08-01 07:50:49.611000+00:00", "ended_at": "2019-08-01 08:05:41.885000+00:00", "duration": 892, "start_station_id": "480", "start_station_name": "Helga Helgesens plass", "start_station_description": "langs Gr\u00f8nlandsleiret", "start_station_latitude": 59.9121109, "start_station_longitude": 10.7661939, "end_station_id": "430", "end_station_name": "Spikersuppa Vest", "end_station_description": "mot Stortingsgata", "end_station_latitude": 59.9137965, "end_station_longitude": 10.7358023}, {"started_at": "2019-08-01 07:51:17.239000+00:00", "ended_at": "2019-08-01 07:57:26.381000+00:00", "duration": 369, "start_station_id": "547", "start_station_name": "Skippergata", "start_station_description": "sidegaten til Karl Johans gate", "start_station_latitude": 59.9112227, "start_station_longitude": 10.7481976, "end_station_id": "494", "end_station_name": "R\u00e5dhusbrygge 4", "end_station_description": "ved Nesoddb\u00e5ten", "end_station_latitude": 59.9108469, "end_station_longitude": 10.7303766}, {"started_at": "2019-08-01 07:51:27.874000+00:00", "ended_at": "2019-08-01 08:01:10.863000+00:00", "duration": 582, "start_station_id": "626", "start_station_name": "Drammensveien", "start_station_description": "ved Ingar Nilsens vei", "start_station_latitude": 59.9204038, "start_station_longitude": 10.691147, "end_station_id": "595", "end_station_name": "Skarpsnoparken", "end_station_description": "ved Drammensveien", "end_station_latitude": 59.914871, "end_station_longitude": 10.701037}, {"started_at": "2019-08-01 07:52:01.008000+00:00", "ended_at": "2019-08-01 07:59:44.812000+00:00", "duration": 463, "start_station_id": "737", "start_station_name": "Munkegata trikkestopp", "start_station_description": "langs Oslo gate", "start_station_latitude": 59.908255, "start_station_longitude": 10.7678, "end_station_id": "463", "end_station_name": "Schous plass trikkestopp", "end_station_description": "ved biblioteket", "end_station_latitude": 59.9207284, "end_station_longitude": 10.7594857}, {"started_at": "2019-08-01 07:52:05.617000+00:00", "ended_at": "2019-08-01 07:59:31.899000+00:00", "duration": 446, "start_station_id": "384", "start_station_name": "V\u00e5r Frelsers gravlund s\u00f8r", "start_station_description": "langs Ullev\u00e5lsveien", "start_station_latitude": 59.919463, "start_station_longitude": 10.743829, "end_station_id": "611", "end_station_name": "Bankplassen", "end_station_description": "ved Kirkegata", "end_station_latitude": 59.908454, "end_station_longitude": 10.741869}, {"started_at": "2019-08-01 07:52:13.905000+00:00", "ended_at": "2019-08-01 07:57:17.682000+00:00", "duration": 303, "start_station_id": "588", "start_station_name": "Meltzers gate", "start_station_description": "ved Skovveien", "start_station_latitude": 59.9180141, "start_station_longitude": 10.7184345, "end_station_id": "430", "end_station_name": "Spikersuppa Vest", "end_station_description": "mot Stortingsgata", "end_station_latitude": 59.9137965, "end_station_longitude": 10.7358023}, {"started_at": "2019-08-01 07:52:19.540000+00:00", "ended_at": "2019-08-01 07:58:59.754000+00:00", "duration": 400, "start_station_id": "493", "start_station_name": "Sofienbergparken nordvest", "start_station_description": "ved Toftes gate", "start_station_latitude": 59.9243639, "start_station_longitude": 10.7615858, "end_station_id": "739", "end_station_name": "Hammersborg Torg", "end_station_description": "i M\u00f8llergata", "end_station_latitude": 59.916536, "end_station_longitude": 10.749162}, {"started_at": "2019-08-01 07:52:20.374000+00:00", "ended_at": "2019-08-01 07:58:58.190000+00:00", "duration": 397, "start_station_id": "433", "start_station_name": "Ila", "start_station_description": "Colletsgt Uelandsgt", "start_station_latitude": 59.931828, "start_station_longitude": 10.748745, "end_station_id": "437", "end_station_name": "Sentrum Scene", "end_station_description": "ved Arbeidersamfunnets plass", "end_station_latitude": 59.91546786564256, "end_station_longitude": 10.751140873016311}, {"started_at": "2019-08-01 07:52:35.742000+00:00", "ended_at": "2019-08-01 08:08:15.831000+00:00", "duration": 940, "start_station_id": "409", "start_station_name": "John Colletts plass", "start_station_description": "ved Sognsveien", "start_station_latitude": 59.940398, "start_station_longitude": 10.730036, "end_station_id": "576", "end_station_name": "Dronningens gate", "end_station_description": "Dronningens gate vest for Karl Johan", "end_station_latitude": 59.91138423128484, "end_station_longitude": 10.747318039414154}, {"started_at": "2019-08-01 07:52:37.412000+00:00", "ended_at": "2019-08-01 07:59:26.453000+00:00", "duration": 409, "start_station_id": "608", "start_station_name": "Colletts gate", "start_station_description": "ved Diriks gate", "start_station_latitude": 59.9307367, "start_station_longitude": 10.746379, "end_station_id": "537", "end_station_name": "St. Olavs gate", "end_station_description": "ved Pilestredet", "end_station_latitude": 59.9179859, "end_station_longitude": 10.7385805}, {"started_at": "2019-08-01 07:52:38.425000+00:00", "ended_at": "2019-08-01 07:57:37.448000+00:00", "duration": 299, "start_station_id": "403", "start_station_name": "Parkveien", "start_station_description": "utenfor Katedralen pub", "start_station_latitude": 59.921768, "start_station_longitude": 10.730476, "end_station_id": "748", "end_station_name": "Hydroparken", "end_station_description": "langs Drammensveien", "end_station_latitude": 59.914145, "end_station_longitude": 10.715505}, {"started_at": "2019-08-01 07:52:48.306000+00:00", "ended_at": "2019-08-01 08:05:59.326000+00:00", "duration": 791, "start_station_id": "434", "start_station_name": "Lindern", "start_station_description": "krysset ved Kirkeveien og Stensgata", "start_station_latitude": 59.9358883, "start_station_longitude": 10.7350062, "end_station_id": "545", "end_station_name": "Arkaden S\u00f8r", "end_station_description": "ved Dronningens gate", "end_station_latitude": 59.9119691, "end_station_longitude": 10.7478583}, {"started_at": "2019-08-01 07:52:52.676000+00:00", "ended_at": "2019-08-01 07:57:31.949000+00:00", "duration": 279, "start_station_id": "396", "start_station_name": "Kirkeristen", "start_station_description": "ved Torggata", "start_station_latitude": 59.913032, "start_station_longitude": 10.746681, "end_station_id": "611", "end_station_name": "Bankplassen", "end_station_description": "ved Kirkegata", "end_station_latitude": 59.908454, "end_station_longitude": 10.741869}, {"started_at": "2019-08-01 07:53:17.758000+00:00", "ended_at": "2019-08-01 07:57:55.434000+00:00", "duration": 277, "start_station_id": "442", "start_station_name": "Vulkan", "start_station_description": "ved Maridalsveien", "start_station_latitude": 59.92251, "start_station_longitude": 10.75101, "end_station_id": "437", "end_station_name": "Sentrum Scene", "end_station_description": "ved Arbeidersamfunnets plass", "end_station_latitude": 59.91546786564256, "end_station_longitude": 10.751140873016311}, {"started_at": "2019-08-01 07:53:26.701000+00:00", "ended_at": "2019-08-01 07:56:28.612000+00:00", "duration": 181, "start_station_id": "744", "start_station_name": "Hall\u00e9nparken", "start_station_description": "ved Vogts gate", "start_station_latitude": 59.9315302, "start_station_longitude": 10.762169, "end_station_id": "398", "end_station_name": "Ringnes Park", "end_station_description": "ved Sannergata", "end_station_latitude": 59.92843404417577, "end_station_longitude": 10.75943014633117}, {"started_at": "2019-08-01 07:53:27.642000+00:00", "ended_at": "2019-08-01 07:59:14.575000+00:00", "duration": 346, "start_station_id": "394", "start_station_name": "Bj\u00f8lsen Studentby", "start_station_description": "ved rundkj\u00f8ringen", "start_station_latitude": 59.94375, "start_station_longitude": 10.7603062, "end_station_id": "607", "end_station_name": "Marcus Thranes gate", "end_station_description": "ved Akerselva", "end_station_latitude": 59.9327471, "end_station_longitude": 10.7585697}, {"started_at": "2019-08-01 07:54:03.994000+00:00", "ended_at": "2019-08-01 08:02:27.288000+00:00", "duration": 503, "start_station_id": "384", "start_station_name": "V\u00e5r Frelsers gravlund s\u00f8r", "start_station_description": "langs Ullev\u00e5lsveien", "start_station_latitude": 59.919463, "start_station_longitude": 10.743829, "end_station_id": "494", "end_station_name": "R\u00e5dhusbrygge 4", "end_station_description": "ved Nesoddb\u00e5ten", "end_station_latitude": 59.9108469, "end_station_longitude": 10.7303766}, {"started_at": "2019-08-01 07:54:06.386000+00:00", "ended_at": "2019-08-01 07:59:03.708000+00:00", "duration": 297, "start_station_id": "384", "start_station_name": "V\u00e5r Frelsers gravlund s\u00f8r", "start_station_description": "langs Ullev\u00e5lsveien", "start_station_latitude": 59.919463, "start_station_longitude": 10.743829, "end_station_id": "611", "end_station_name": "Bankplassen", "end_station_description": "ved Kirkegata", "end_station_latitude": 59.908454, "end_station_longitude": 10.741869}, {"started_at": "2019-08-01 07:54:09.353000+00:00", "ended_at": "2019-08-01 08:03:09.467000+00:00", "duration": 540, "start_station_id": "411", "start_station_name": "Hasle Torg", "start_station_description": "ved busstoppet", "start_station_latitude": 59.9232266, "start_station_longitude": 10.7928824, "end_station_id": "734", "end_station_name": "Nylandsveien", "end_station_description": "mellom Norbygata og Urtegata", "end_station_latitude": 59.9156603, "end_station_longitude": 10.7622812}, {"started_at": "2019-08-01 07:54:11.085000+00:00", "ended_at": "2019-08-01 08:01:52.824000+00:00", "duration": 461, "start_station_id": "465", "start_station_name": "Bj\u00f8rvika", "start_station_description": "ved broen under Nylandsveien", "start_station_latitude": 59.909006, "start_station_longitude": 10.75618, "end_station_id": "523", "end_station_name": "T\u00f8yenbekken", "end_station_description": "\u00d8st for Gr\u00f8nlands Torg", "end_station_latitude": 59.9115945, "end_station_longitude": 10.7617736}, {"started_at": "2019-08-01 07:54:13.509000+00:00", "ended_at": "2019-08-01 08:03:44.250000+00:00", "duration": 570, "start_station_id": "399", "start_station_name": "Uelands gate", "start_station_description": "Ved Ulvetrappen (Ilatrappen)", "start_station_latitude": 59.929545, "start_station_longitude": 10.7489862, "end_station_id": "440", "end_station_name": "Lakkegata", "end_station_description": "ved Sundtkvartalet", "end_station_latitude": 59.9172088, "end_station_longitude": 10.7622135}, {"started_at": "2019-08-01 07:54:14.283000+00:00", "ended_at": "2019-08-01 08:12:17.272000+00:00", "duration": 1082, "start_station_id": "494", "start_station_name": "R\u00e5dhusbrygge 4", "start_station_description": "ved Nesoddb\u00e5ten", "start_station_latitude": 59.9108469, "start_station_longitude": 10.7303766, "end_station_id": "407", "end_station_name": "Sagene bussholdeplass", "end_station_description": "ved Gr\u00e5beinsletta", "end_station_latitude": 59.937743, "end_station_longitude": 10.751648}, {"started_at": "2019-08-01 07:54:16.880000+00:00", "ended_at": "2019-08-01 07:59:04.790000+00:00", "duration": 287, "start_station_id": "403", "start_station_name": "Parkveien", "start_station_description": "utenfor Katedralen pub", "start_station_latitude": 59.921768, "start_station_longitude": 10.730476, "end_station_id": "430", "end_station_name": "Spikersuppa Vest", "end_station_description": "mot Stortingsgata", "end_station_latitude": 59.9137965, "end_station_longitude": 10.7358023}, {"started_at": "2019-08-01 07:54:21.266000+00:00", "ended_at": "2019-08-01 07:56:30.586000+00:00", "duration": 129, "start_station_id": "569", "start_station_name": "Botanisk hage s\u00f8r-vest", "start_station_description": "ved Sars' gate", "start_station_latitude": 59.9177943, "start_station_longitude": 10.7662784, "end_station_id": "569", "end_station_name": "Botanisk hage s\u00f8r-vest", "end_station_description": "ved Sars' gate", "end_station_latitude": 59.9177943, "end_station_longitude": 10.7662784}, {"started_at": "2019-08-01 07:54:21.933000+00:00", "ended_at": "2019-08-01 07:58:10.994000+00:00", "duration": 229, "start_station_id": "494", "start_station_name": "R\u00e5dhusbrygge 4", "start_station_description": "ved Nesoddb\u00e5ten", "start_station_latitude": 59.9108469, "start_station_longitude": 10.7303766, "end_station_id": "515", "end_station_name": "Olav Vs gate", "end_station_description": "Nord for Kronprinsesse M\u00e4rthas plass", "end_station_latitude": 59.912918, "end_station_longitude": 10.732121}, {"started_at": "2019-08-01 07:54:28.705000+00:00", "ended_at": "2019-08-01 07:59:37.543000+00:00", "duration": 308, "start_station_id": "739", "start_station_name": "Hammersborg Torg", "start_station_description": "i M\u00f8llergata", "start_station_latitude": 59.916536, "start_station_longitude": 10.749162, "end_station_id": "444", "end_station_name": "AHO", "end_station_description": "langs Maridalsveien", "end_station_latitude": 59.925265, "end_station_longitude": 10.750462}, {"started_at": "2019-08-01 07:54:36.564000+00:00", "ended_at": "2019-08-01 07:58:19.996000+00:00", "duration": 223, "start_station_id": "734", "start_station_name": "Nylandsveien", "start_station_description": "mellom Norbygata og Urtegata", "start_station_latitude": 59.9156603, "start_station_longitude": 10.7622812, "end_station_id": "408", "end_station_name": "T\u00f8yen skole", "end_station_description": "forsiden av skolebygget", "end_station_latitude": 59.914943, "end_station_longitude": 10.773977}, {"started_at": "2019-08-01 07:54:48.167000+00:00", "ended_at": "2019-08-01 08:03:25.362000+00:00", "duration": 517, "start_station_id": "429", "start_station_name": "Thune", "start_station_description": "ved bomringen", "start_station_latitude": 59.92208, "start_station_longitude": 10.68588, "end_station_id": "435", "end_station_name": "Fram-g\u00e5rden", "end_station_description": "langs Bygd\u00f8y All\u00e9", "end_station_latitude": 59.915424, "end_station_longitude": 10.714577}, {"started_at": "2019-08-01 07:54:51.131000+00:00", "ended_at": "2019-08-01 08:04:46.786000+00:00", "duration": 595, "start_station_id": "422", "start_station_name": "St. Hanshaugen", "start_station_description": "i Waldemar Thranes gate", "start_station_latitude": 59.923703, "start_station_longitude": 10.740542, "end_station_id": "576", "end_station_name": "Dronningens gate", "end_station_description": "Dronningens gate vest for Karl Johan", "end_station_latitude": 59.91138423128484, "end_station_longitude": 10.747318039414154}, {"started_at": "2019-08-01 07:54:53.238000+00:00", "ended_at": "2019-08-01 08:03:03.957000+00:00", "duration": 490, "start_station_id": "582", "start_station_name": "Stavangergata", "start_station_description": "ved Uelands gate", "start_station_latitude": 59.941108, "start_station_longitude": 10.7506048, "end_station_id": "437", "end_station_name": "Sentrum Scene", "end_station_description": "ved Arbeidersamfunnets plass", "end_station_latitude": 59.91546786564256, "end_station_longitude": 10.751140873016311}, {"started_at": "2019-08-01 07:55:12.086000+00:00", "ended_at": "2019-08-01 08:03:10.959000+00:00", "duration": 478, "start_station_id": "409", "start_station_name": "John Colletts plass", "start_station_description": "ved Sognsveien", "start_station_latitude": 59.940398, "start_station_longitude": 10.730036, "end_station_id": "584", "end_station_name": "Henrik Wergelands all\u00e9", "end_station_description": "ved Bogstadveien", "end_station_latitude": 59.9268942, "end_station_longitude": 10.7207894}, {"started_at": "2019-08-01 07:55:14.210000+00:00", "ended_at": "2019-08-01 08:16:28.821000+00:00", "duration": 1274, "start_station_id": "598", "start_station_name": "Sofienbergparken nord", "start_station_description": "langs Helgesens gate", "start_station_latitude": 59.923229, "start_station_longitude": 10.766171, "end_station_id": "413", "end_station_name": "Majorstuen", "end_station_description": "utenfor banken i Majorstukrysset", "end_station_latitude": 59.929045, "end_station_longitude": 10.716926}, {"started_at": "2019-08-01 07:55:16.342000+00:00", "ended_at": "2019-08-01 07:59:23.231000+00:00", "duration": 246, "start_station_id": "493", "start_station_name": "Sofienbergparken nordvest", "start_station_description": "ved Toftes gate", "start_station_latitude": 59.9243639, "start_station_longitude": 10.7615858, "end_station_id": "514", "end_station_name": "Sofienberggata", "end_station_description": "ved Sars' gate", "end_station_latitude": 59.9212063, "end_station_longitude": 10.7699892}, {"started_at": "2019-08-01 07:55:19.732000+00:00", "ended_at": "2019-08-01 08:05:06.348000+00:00", "duration": 586, "start_station_id": "426", "start_station_name": "Gimle Kino", "start_station_description": "nedenfor Frogner Kirke", "start_station_latitude": 59.917202, "start_station_longitude": 10.708339, "end_station_id": "413", "end_station_name": "Majorstuen", "end_station_description": "utenfor banken i Majorstukrysset", "end_station_latitude": 59.929045, "end_station_longitude": 10.716926}, {"started_at": "2019-08-01 07:55:31.964000+00:00", "ended_at": "2019-08-01 08:00:39.313000+00:00", "duration": 307, "start_station_id": "377", "start_station_name": "T\u00f8yenparken", "start_station_description": "ved Caltexl\u00f8kka", "start_station_latitude": 59.915667, "start_station_longitude": 10.7775665, "end_station_id": "522", "end_station_name": "Mandalls gate", "end_station_description": "ved Gr\u00f8nlandsleiret", "end_station_latitude": 59.9123469, "end_station_longitude": 10.7638147}, {"started_at": "2019-08-01 07:55:46.412000+00:00", "ended_at": "2019-08-01 08:01:22.225000+00:00", "duration": 335, "start_station_id": "385", "start_station_name": "S\u00f8ndre gate", "start_station_description": "ved Ankerbrua", "start_station_latitude": 59.918632, "start_station_longitude": 10.757867, "end_station_id": "599", "end_station_name": "Pal\u00e9haven", "end_station_description": "langs Strandgata", "end_station_latitude": 59.910331, "end_station_longitude": 10.75011}, {"started_at": "2019-08-01 07:55:56.965000+00:00", "ended_at": "2019-08-01 08:05:23.695000+00:00", "duration": 566, "start_station_id": "390", "start_station_name": "Saga Kino", "start_station_description": "i Olav Vs gate", "start_station_latitude": 59.914002, "start_station_longitude": 10.732869, "end_station_id": "465", "end_station_name": "Bj\u00f8rvika", "end_station_description": "ved broen under Nylandsveien", "end_station_latitude": 59.909006, "end_station_longitude": 10.75618}, {"started_at": "2019-08-01 07:56:06.582000+00:00", "ended_at": "2019-08-01 07:58:46.517000+00:00", "duration": 159, "start_station_id": "578", "start_station_name": "Hallings gate", "start_station_description": "ved Dalsbergstien", "start_station_latitude": 59.922777, "start_station_longitude": 10.738655, "end_station_id": "384", "end_station_name": "V\u00e5r Frelsers gravlund s\u00f8r", "end_station_description": "langs Ullev\u00e5lsveien", "end_station_latitude": 59.919463, "end_station_longitude": 10.743829}, {"started_at": "2019-08-01 07:56:52.501000+00:00", "ended_at": "2019-08-01 08:49:00.060000+00:00", "duration": 3127, "start_station_id": "398", "start_station_name": "Ringnes Park", "start_station_description": "ved Sannergata", "start_station_latitude": 59.92843404417577, "start_station_longitude": 10.75943014633117, "end_station_id": "744", "end_station_name": "Hall\u00e9nparken", "end_station_description": "ved Vogts gate", "end_station_latitude": 59.9315302, "end_station_longitude": 10.762169}, {"started_at": "2019-08-01 07:57:00.095000+00:00", "ended_at": "2019-08-01 07:58:05.459000+00:00", "duration": 65, "start_station_id": "569", "start_station_name": "Botanisk hage s\u00f8r-vest", "start_station_description": "ved Sars' gate", "start_station_latitude": 59.9177943, "start_station_longitude": 10.7662784, "end_station_id": "569", "end_station_name": "Botanisk hage s\u00f8r-vest", "end_station_description": "ved Sars' gate", "end_station_latitude": 59.9177943, "end_station_longitude": 10.7662784}, {"started_at": "2019-08-01 07:57:17.499000+00:00", "ended_at": "2019-08-01 08:04:04.868000+00:00", "duration": 407, "start_station_id": "450", "start_station_name": "Elisenberg", "start_station_description": "ved holdeplassen", "start_station_latitude": 59.919524, "start_station_longitude": 10.70884, "end_station_id": "494", "end_station_name": "R\u00e5dhusbrygge 4", "end_station_description": "ved Nesoddb\u00e5ten", "end_station_latitude": 59.9108469, "end_station_longitude": 10.7303766}, {"started_at": "2019-08-01 07:57:35.596000+00:00", "ended_at": "2019-08-01 08:01:15.157000+00:00", "duration": 219, "start_station_id": "459", "start_station_name": "Valkyrieplassen", "start_station_description": "langs Valkyriegata", "start_station_latitude": 59.9281319, "start_station_longitude": 10.71842, "end_station_id": "590", "end_station_name": "Majorstua skole", "end_station_description": "i S\u00f8rkedalsveien", "end_station_latitude": 59.9294351, "end_station_longitude": 10.7136816}, {"started_at": "2019-08-01 07:57:56.716000+00:00", "ended_at": "2019-08-01 08:02:33.975000+00:00", "duration": 277, "start_station_id": "390", "start_station_name": "Saga Kino", "start_station_description": "i Olav Vs gate", "start_station_latitude": 59.914002, "start_station_longitude": 10.732869, "end_station_id": "400", "end_station_name": "HiOA", "end_station_description": "langs Pilestredet", "end_station_latitude": 59.919927, "end_station_longitude": 10.735428}, {"started_at": "2019-08-01 07:58:10.913000+00:00", "ended_at": "2019-08-01 08:08:22.033000+00:00", "duration": 611, "start_station_id": "398", "start_station_name": "Ringnes Park", "start_station_description": "ved Sannergata", "start_station_latitude": 59.92843404417577, "start_station_longitude": 10.75943014633117, "end_station_id": "495", "end_station_name": "Vaterlandsparken", "end_station_description": "langs Brugata", "end_station_latitude": 59.913532, "end_station_longitude": 10.757334}, {"started_at": "2019-08-01 07:58:18.194000+00:00", "ended_at": "2019-08-01 08:00:30.128000+00:00", "duration": 131, "start_station_id": "472", "start_station_name": "Arendalsgata", "start_station_description": "over veien fra Sagen Kirke", "start_station_latitude": 59.9378, "start_station_longitude": 10.7541, "end_station_id": "383", "end_station_name": "Arkitekt Rivertz Plass", "end_station_description": "i Uelands gate", "end_station_latitude": 59.934936, "end_station_longitude": 10.749466}, {"started_at": "2019-08-01 07:58:34.539000+00:00", "ended_at": "2019-08-01 08:07:44.364000+00:00", "duration": 549, "start_station_id": "569", "start_station_name": "Botanisk hage s\u00f8r-vest", "start_station_description": "ved Sars' gate", "start_station_latitude": 59.9177943, "start_station_longitude": 10.7662784, "end_station_id": "523", "end_station_name": "T\u00f8yenbekken", "end_station_description": "\u00d8st for Gr\u00f8nlands Torg", "end_station_latitude": 59.9115945, "end_station_longitude": 10.7617736}, {"started_at": "2019-08-01 07:58:40.715000+00:00", "ended_at": "2019-08-01 08:16:31.421000+00:00", "duration": 1070, "start_station_id": "584", "start_station_name": "Henrik Wergelands all\u00e9", "start_station_description": "ved Bogstadveien", "start_station_latitude": 59.9268942, "start_station_longitude": 10.7207894, "end_station_id": "418", "end_station_name": "Norsk Folkemuseum", "end_station_description": "utenfor inngangen", "end_station_latitude": 59.907674, "end_station_longitude": 10.686843}, {"started_at": "2019-08-01 07:58:54.488000+00:00", "ended_at": "2019-08-01 08:01:55.552000+00:00", "duration": 181, "start_station_id": "737", "start_station_name": "Munkegata trikkestopp", "start_station_description": "langs Oslo gate", "start_station_latitude": 59.908255, "start_station_longitude": 10.7678, "end_station_id": "522", "end_station_name": "Mandalls gate", "end_station_description": "ved Gr\u00f8nlandsleiret", "end_station_latitude": 59.9123469, "end_station_longitude": 10.7638147}, {"started_at": "2019-08-01 07:59:11.220000+00:00", "ended_at": "2019-08-01 09:00:32.485000+00:00", "duration": 3681, "start_station_id": "470", "start_station_name": "St. Hanshaugen park nord", "start_station_description": "krysset Colletts gt / Geitmyrsveien", "start_station_latitude": 59.929771, "start_station_longitude": 10.743524, "end_station_id": "400", "end_station_name": "HiOA", "end_station_description": "langs Pilestredet", "end_station_latitude": 59.919927, "end_station_longitude": 10.735428}, {"started_at": "2019-08-01 07:59:39.762000+00:00", "ended_at": "2019-08-01 08:03:52.144000+00:00", "duration": 252, "start_station_id": "748", "start_station_name": "Hydroparken", "start_station_description": "langs Drammensveien", "start_station_latitude": 59.914145, "start_station_longitude": 10.715505, "end_station_id": "595", "end_station_name": "Skarpsnoparken", "end_station_description": "ved Drammensveien", "end_station_latitude": 59.914871, "end_station_longitude": 10.701037}, {"started_at": "2019-08-01 07:59:41.265000+00:00", "ended_at": "2019-08-01 08:08:27.658000+00:00", "duration": 526, "start_station_id": "447", "start_station_name": "Kv\u00e6rnerbyen", "start_station_description": "ved treningssenteret", "start_station_latitude": 59.904473, "start_station_longitude": 10.786167, "end_station_id": "485", "end_station_name": "Sommerfrydhagen", "end_station_description": "i Jens Bjelkes gate", "end_station_latitude": 59.911453, "end_station_longitude": 10.776072}, {"started_at": "2019-08-01 07:59:45.888000+00:00", "ended_at": "2019-08-01 08:04:35.549000+00:00", "duration": 289, "start_station_id": "444", "start_station_name": "AHO", "start_station_description": "langs Maridalsveien", "start_station_latitude": 59.925265, "start_station_longitude": 10.750462, "end_station_id": "551", "end_station_name": "Olaf Ryes plass", "end_station_description": "ved Sofienberggata", "end_station_latitude": 59.922425, "end_station_longitude": 10.758182}, {"started_at": "2019-08-01 08:00:27.435000+00:00", "ended_at": "2019-08-01 08:09:32.219000+00:00", "duration": 544, "start_station_id": "530", "start_station_name": "Holbergs Plass", "start_station_description": "ved Welhavens gate", "start_station_latitude": 59.9193095, "start_station_longitude": 10.7343051, "end_station_id": "573", "end_station_name": "Tordenskiolds gate", "end_station_description": "Mellom R\u00e5dhusplassen og Otto Sverdrups gate", "end_station_latitude": 59.9117882, "end_station_longitude": 10.7351647}, {"started_at": "2019-08-01 08:00:48.125000+00:00", "ended_at": "2019-08-01 08:05:49.136000+00:00", "duration": 301, "start_station_id": "587", "start_station_name": "Riddervoldplass", "start_station_description": "ved Camilla Colletts vei", "start_station_latitude": 59.9191421, "start_station_longitude": 10.7196414, "end_station_id": "446", "end_station_name": "Bislett Stadion", "end_station_description": "ved rundkj\u00f8ringen", "end_station_latitude": 59.92549, "end_station_longitude": 10.731288}, {"started_at": "2019-08-01 08:00:58.382000+00:00", "ended_at": "2019-08-01 08:03:24.600000+00:00", "duration": 146, "start_station_id": "383", "start_station_name": "Arkitekt Rivertz Plass", "start_station_description": "i Uelands gate", "start_station_latitude": 59.934936, "start_station_longitude": 10.749466, "end_station_id": "399", "end_station_name": "Uelands gate", "end_station_description": "Ved Ulvetrappen (Ilatrappen)", "end_station_latitude": 59.929545, "end_station_longitude": 10.7489862}, {"started_at": "2019-08-01 08:01:08.913000+00:00", "ended_at": "2019-08-01 08:14:06.080000+00:00", "duration": 777, "start_station_id": "599", "start_station_name": "Pal\u00e9haven", "start_station_description": "langs Strandgata", "start_station_latitude": 59.910331, "start_station_longitude": 10.75011, "end_station_id": "481", "end_station_name": "R\u00e5dhusgata", "end_station_description": "ved Kontraskj\u00e6ret trikkestopp", "end_station_latitude": 59.910924, "end_station_longitude": 10.736215}, {"started_at": "2019-08-01 08:01:09.016000+00:00", "ended_at": "2019-08-01 08:13:15.823000+00:00", "duration": 726, "start_station_id": "599", "start_station_name": "Pal\u00e9haven", "start_station_description": "langs Strandgata", "start_station_latitude": 59.910331, "start_station_longitude": 10.75011, "end_station_id": "481", "end_station_name": "R\u00e5dhusgata", "end_station_description": "ved Kontraskj\u00e6ret trikkestopp", "end_station_latitude": 59.910924, "end_station_longitude": 10.736215}, {"started_at": "2019-08-01 08:01:10.109000+00:00", "ended_at": "2019-08-01 08:14:06.891000+00:00", "duration": 776, "start_station_id": "599", "start_station_name": "Pal\u00e9haven", "start_station_description": "langs Strandgata", "start_station_latitude": 59.910331, "start_station_longitude": 10.75011, "end_station_id": "481", "end_station_name": "R\u00e5dhusgata", "end_station_description": "ved Kontraskj\u00e6ret trikkestopp", "end_station_latitude": 59.910924, "end_station_longitude": 10.736215}, {"started_at": "2019-08-01 08:01:11.859000+00:00", "ended_at": "2019-08-01 08:11:27.699000+00:00", "duration": 615, "start_station_id": "600", "start_station_name": "Dyvekes bru", "start_station_description": "ved skatepark", "start_station_latitude": 59.905323, "start_station_longitude": 10.7689579, "end_station_id": "481", "end_station_name": "R\u00e5dhusgata", "end_station_description": "ved Kontraskj\u00e6ret trikkestopp", "end_station_latitude": 59.910924, "end_station_longitude": 10.736215}, {"started_at": "2019-08-01 08:01:15.399000+00:00", "ended_at": "2019-08-01 08:13:21.557000+00:00", "duration": 726, "start_station_id": "599", "start_station_name": "Pal\u00e9haven", "start_station_description": "langs Strandgata", "start_station_latitude": 59.910331, "start_station_longitude": 10.75011, "end_station_id": "481", "end_station_name": "R\u00e5dhusgata", "end_station_description": "ved Kontraskj\u00e6ret trikkestopp", "end_station_latitude": 59.910924, "end_station_longitude": 10.736215}, {"started_at": "2019-08-01 08:01:33.682000+00:00", "ended_at": "2019-08-01 08:08:34.562000+00:00", "duration": 420, "start_station_id": "427", "start_station_name": "Briskeby", "start_station_description": "ved Uranienborg skole", "start_station_latitude": 59.920218, "start_station_longitude": 10.717978, "end_station_id": "748", "end_station_name": "Hydroparken", "end_station_description": "langs Drammensveien", "end_station_latitude": 59.914145, "end_station_longitude": 10.715505}, {"started_at": "2019-08-01 08:01:33.877000+00:00", "ended_at": "2019-08-01 08:05:00.493000+00:00", "duration": 206, "start_station_id": "444", "start_station_name": "AHO", "start_station_description": "langs Maridalsveien", "start_station_latitude": 59.925265, "start_station_longitude": 10.750462, "end_station_id": "551", "end_station_name": "Olaf Ryes plass", "end_station_description": "ved Sofienberggata", "end_station_latitude": 59.922425, "end_station_longitude": 10.758182}, {"started_at": "2019-08-01 08:01:43.040000+00:00", "ended_at": "2019-08-01 08:14:36.834000+00:00", "duration": 773, "start_station_id": "585", "start_station_name": "Nordre gate", "start_station_description": "\u00d8st for Gr\u00fcnerbrua", "start_station_latitude": 59.9212171, "start_station_longitude": 10.7547918, "end_station_id": "557", "end_station_name": "Akersgata", "end_station_description": "ved Grensen", "end_station_latitude": 59.9141971, "end_station_longitude": 10.7428828}, {"started_at": "2019-08-01 08:01:49.382000+00:00", "ended_at": "2019-08-01 08:13:25.187000+00:00", "duration": 695, "start_station_id": "599", "start_station_name": "Pal\u00e9haven", "start_station_description": "langs Strandgata", "start_station_latitude": 59.910331, "start_station_longitude": 10.75011, "end_station_id": "481", "end_station_name": "R\u00e5dhusgata", "end_station_description": "ved Kontraskj\u00e6ret trikkestopp", "end_station_latitude": 59.910924, "end_station_longitude": 10.736215}, {"started_at": "2019-08-01 08:02:08.363000+00:00", "ended_at": "2019-08-01 08:10:23.354000+00:00", "duration": 494, "start_station_id": "406", "start_station_name": "Carl Berners plass s\u00f8r", "start_station_description": "langs Finnmarkgata", "start_station_latitude": 59.92507, "start_station_longitude": 10.775996, "end_station_id": "523", "end_station_name": "T\u00f8yenbekken", "end_station_description": "\u00d8st for Gr\u00f8nlands Torg", "end_station_latitude": 59.9115945, "end_station_longitude": 10.7617736}, {"started_at": "2019-08-01 08:02:50.346000+00:00", "ended_at": "2019-08-01 08:19:44.726000+00:00", "duration": 1014, "start_station_id": "581", "start_station_name": "Jordalgata", "start_station_description": "mellom bussholdeplassene p\u00e5 Galgeberg", "start_station_latitude": 59.908227, "start_station_longitude": 10.781088, "end_station_id": "398", "end_station_name": "Ringnes Park", "end_station_description": "ved Sannergata", "end_station_latitude": 59.92843404417577, "end_station_longitude": 10.75943014633117}, {"started_at": "2019-08-01 08:02:59.009000+00:00", "ended_at": "2019-08-01 08:09:28.396000+00:00", "duration": 389, "start_station_id": "400", "start_station_name": "HiOA", "start_station_description": "langs Pilestredet", "start_station_latitude": 59.919927, "start_station_longitude": 10.735428, "end_station_id": "526", "end_station_name": "Lille Grensen", "end_station_description": "Ved Akersgata", "end_station_latitude": 59.9138973, "end_station_longitude": 10.7423101}, {"started_at": "2019-08-01 08:03:05.325000+00:00", "ended_at": "2019-08-01 08:05:11.715000+00:00", "duration": 126, "start_station_id": "746", "start_station_name": "Bygd\u00f8y all\u00e9", "start_station_description": "ved broen over togskinnene", "start_station_latitude": 59.919001, "start_station_longitude": 10.692321, "end_station_id": "746", "end_station_name": "Bygd\u00f8y all\u00e9", "end_station_description": "ved broen over togskinnene", "end_station_latitude": 59.919001, "end_station_longitude": 10.692321}, {"started_at": "2019-08-01 08:03:09.928000+00:00", "ended_at": "2019-08-01 08:25:27.804000+00:00", "duration": 1337, "start_station_id": "413", "start_station_name": "Majorstuen", "start_station_description": "utenfor banken i Majorstukrysset", "start_station_latitude": 59.929045, "start_station_longitude": 10.716926, "end_station_id": "396", "end_station_name": "Kirkeristen", "end_station_description": "ved Torggata", "end_station_latitude": 59.913032, "end_station_longitude": 10.746681}, {"started_at": "2019-08-01 08:03:19.630000+00:00", "ended_at": "2019-08-01 08:10:53.227000+00:00", "duration": 453, "start_station_id": "410", "start_station_name": "Landstads gate", "start_station_description": "ved Uelands gate", "start_station_latitude": 59.929005, "start_station_longitude": 10.7496755, "end_station_id": "506", "end_station_name": "Botanisk Hage vest", "end_station_description": "ved Blytts gate", "end_station_latitude": 59.920073, "end_station_longitude": 10.769035}, {"started_at": "2019-08-01 08:03:37.920000+00:00", "ended_at": "2019-08-01 08:13:24.375000+00:00", "duration": 586, "start_station_id": "399", "start_station_name": "Uelands gate", "start_station_description": "Ved Ulvetrappen (Ilatrappen)", "start_station_latitude": 59.929545, "start_station_longitude": 10.7489862, "end_station_id": "611", "end_station_name": "Bankplassen", "end_station_description": "ved Kirkegata", "end_station_latitude": 59.908454, "end_station_longitude": 10.741869}, {"started_at": "2019-08-01 08:03:48.431000+00:00", "ended_at": "2019-08-01 08:20:07.020000+00:00", "duration": 978, "start_station_id": "410", "start_station_name": "Landstads gate", "start_station_description": "ved Uelands gate", "start_station_latitude": 59.929005, "start_station_longitude": 10.7496755, "end_station_id": "474", "end_station_name": "Blindern studentparkering", "end_station_description": "rett ved Blindern Studenterhjem", "end_station_latitude": 59.940953, "end_station_longitude": 10.720862}, {"started_at": "2019-08-01 08:04:19.843000+00:00", "ended_at": "2019-08-01 08:14:04.486000+00:00", "duration": 584, "start_station_id": "416", "start_station_name": "Tannlegeh\u00f8yskolen", "start_station_description": "i Geitmyrsveien", "start_station_latitude": 59.932383, "start_station_longitude": 10.741475, "end_station_id": "515", "end_station_name": "Olav Vs gate", "end_station_description": "Nord for Kronprinsesse M\u00e4rthas plass", "end_station_latitude": 59.912918, "end_station_longitude": 10.732121}, {"started_at": "2019-08-01 08:04:20.534000+00:00", "ended_at": "2019-08-01 08:11:19.592000+00:00", "duration": 419, "start_station_id": "557", "start_station_name": "Akersgata", "start_station_description": "ved Grensen", "start_station_latitude": 59.9141971, "start_station_longitude": 10.7428828, "end_station_id": "564", "end_station_name": "Oscars gate", "end_station_description": "ved Hegdehaugsveien", "end_station_latitude": 59.9224222, "end_station_longitude": 10.7272388}, {"started_at": "2019-08-01 08:04:36.697000+00:00", "ended_at": "2019-08-01 08:20:37.712000+00:00", "duration": 961, "start_station_id": "603", "start_station_name": "Frogner plass", "start_station_description": "i rundkj\u00f8ringen", "start_station_latitude": 59.9225392, "start_station_longitude": 10.7045406, "end_station_id": "385", "end_station_name": "S\u00f8ndre gate", "end_station_description": "ved Ankerbrua", "end_station_latitude": 59.918632, "end_station_longitude": 10.757867}, {"started_at": "2019-08-01 08:04:48.231000+00:00", "ended_at": "2019-08-01 08:07:48.048000+00:00", "duration": 179, "start_station_id": "563", "start_station_name": "Huitfeldts gate", "start_station_description": "mellom Cort Adelers gate og Observatoriegata", "start_station_latitude": 59.9126844, "start_station_longitude": 10.7229003, "end_station_id": "534", "end_station_name": "Filipstadveien", "end_station_description": "Ved busslommen", "end_station_latitude": 59.9102277, "end_station_longitude": 10.7208788}, {"started_at": "2019-08-01 08:04:50.443000+00:00", "ended_at": "2019-08-01 08:10:22.922000+00:00", "duration": 332, "start_station_id": "739", "start_station_name": "Hammersborg Torg", "start_station_description": "i M\u00f8llergata", "start_station_latitude": 59.916536, "start_station_longitude": 10.749162, "end_station_id": "392", "end_station_name": "Sj\u00f8siden vest", "end_station_description": "n\u00e6rmest fontenen", "end_station_latitude": 59.910180852633516, "end_station_longitude": 10.751698750995615}, {"started_at": "2019-08-01 08:05:06.085000+00:00", "ended_at": "2019-08-01 08:12:27.144000+00:00", "duration": 441, "start_station_id": "528", "start_station_name": "Nedre Slottsgate", "start_station_description": "ved Grensen", "start_station_latitude": 59.913245, "start_station_longitude": 10.743669, "end_station_id": "463", "end_station_name": "Schous plass trikkestopp", "end_station_description": "ved biblioteket", "end_station_latitude": 59.9207284, "end_station_longitude": 10.7594857}, {"started_at": "2019-08-01 08:05:14.580000+00:00", "ended_at": "2019-08-01 08:35:38.440000+00:00", "duration": 1823, "start_station_id": "746", "start_station_name": "Bygd\u00f8y all\u00e9", "start_station_description": "ved broen over togskinnene", "start_station_latitude": 59.919001, "start_station_longitude": 10.692321, "end_station_id": "503", "end_station_name": "Fagerheimgata", "end_station_description": "ved D\u00e6lenenga Busstopp", "end_station_latitude": 59.9274634, "end_station_longitude": 10.7657433}, {"started_at": "2019-08-01 08:05:18.581000+00:00", "ended_at": "2019-08-01 08:19:12.326000+00:00", "duration": 833, "start_station_id": "439", "start_station_name": "M\u00f8lleparken", "start_station_description": "ved Sannerbrua", "start_station_latitude": 59.9283928, "start_station_longitude": 10.7559693, "end_station_id": "619", "end_station_name": "Bak Niels Treschows hus nord", "end_station_description": "n\u00e6rmest parkeringsplassen", "end_station_latitude": 59.942780248542554, "end_station_longitude": 10.722993731144015}, {"started_at": "2019-08-01 08:05:24.833000+00:00", "ended_at": "2019-08-01 08:15:47.518000+00:00", "duration": 622, "start_station_id": "582", "start_station_name": "Stavangergata", "start_station_description": "ved Uelands gate", "start_station_latitude": 59.941108, "start_station_longitude": 10.7506048, "end_station_id": "384", "end_station_name": "V\u00e5r Frelsers gravlund s\u00f8r", "end_station_description": "langs Ullev\u00e5lsveien", "end_station_latitude": 59.919463, "end_station_longitude": 10.743829}, {"started_at": "2019-08-01 08:05:52.412000+00:00", "ended_at": "2019-08-01 08:15:58.047000+00:00", "duration": 605, "start_station_id": "748", "start_station_name": "Hydroparken", "start_station_description": "langs Drammensveien", "start_station_latitude": 59.914145, "start_station_longitude": 10.715505, "end_station_id": "748", "end_station_name": "Hydroparken", "end_station_description": "langs Drammensveien", "end_station_latitude": 59.914145, "end_station_longitude": 10.715505}, {"started_at": "2019-08-01 08:06:06.801000+00:00", "ended_at": "2019-08-01 08:14:30.547000+00:00", "duration": 503, "start_station_id": "574", "start_station_name": "Annette Thommessens Plass", "start_station_description": "langs Schweigaards gate", "start_station_latitude": 59.9107393, "start_station_longitude": 10.7609998, "end_station_id": "494", "end_station_name": "R\u00e5dhusbrygge 4", "end_station_description": "ved Nesoddb\u00e5ten", "end_station_latitude": 59.9108469, "end_station_longitude": 10.7303766}, {"started_at": "2019-08-01 08:06:09.817000+00:00", "ended_at": "2019-08-01 08:14:29.076000+00:00", "duration": 499, "start_station_id": "455", "start_station_name": "Sofienbergparken s\u00f8r", "start_station_description": "langs Sofienberggata", "start_station_latitude": 59.922337, "start_station_longitude": 10.7617503, "end_station_id": "481", "end_station_name": "R\u00e5dhusgata", "end_station_description": "ved Kontraskj\u00e6ret trikkestopp", "end_station_latitude": 59.910924, "end_station_longitude": 10.736215}, {"started_at": "2019-08-01 08:06:20.274000+00:00", "ended_at": "2019-08-01 08:11:06.777000+00:00", "duration": 286, "start_station_id": "558", "start_station_name": "Dokkveien", "start_station_description": "ved St\u00f8perigata", "start_station_latitude": 59.910974, "start_station_longitude": 10.7277001, "end_station_id": "611", "end_station_name": "Bankplassen", "end_station_description": "ved Kirkegata", "end_station_latitude": 59.908454, "end_station_longitude": 10.741869}, {"started_at": "2019-08-01 08:06:33.460000+00:00", "ended_at": "2019-08-01 08:12:37.986000+00:00", "duration": 364, "start_station_id": "410", "start_station_name": "Landstads gate", "start_station_description": "ved Uelands gate", "start_station_latitude": 59.929005, "start_station_longitude": 10.7496755, "end_station_id": "437", "end_station_name": "Sentrum Scene", "end_station_description": "ved Arbeidersamfunnets plass", "end_station_latitude": 59.91546786564256, "end_station_longitude": 10.751140873016311}, {"started_at": "2019-08-01 08:06:44.441000+00:00", "ended_at": "2019-08-01 08:14:23.782000+00:00", "duration": 459, "start_station_id": "537", "start_station_name": "St. Olavs gate", "start_station_description": "ved Pilestredet", "start_station_latitude": 59.9179859, "start_station_longitude": 10.7385805, "end_station_id": "611", "end_station_name": "Bankplassen", "end_station_description": "ved Kirkegata", "end_station_latitude": 59.908454, "end_station_longitude": 10.741869}, {"started_at": "2019-08-01 08:06:58.936000+00:00", "ended_at": "2019-08-01 08:13:49.338000+00:00", "duration": 410, "start_station_id": "489", "start_station_name": "Torggata", "start_station_description": "ved Bernt Ankers gate", "start_station_latitude": 59.916012, "start_station_longitude": 10.751655, "end_station_id": "573", "end_station_name": "Tordenskiolds gate", "end_station_description": "Mellom R\u00e5dhusplassen og Otto Sverdrups gate", "end_station_latitude": 59.9117882, "end_station_longitude": 10.7351647}, {"started_at": "2019-08-01 08:07:00.475000+00:00", "ended_at": "2019-08-01 08:19:38.146000+00:00", "duration": 757, "start_station_id": "551", "start_station_name": "Olaf Ryes plass", "start_station_description": "ved Sofienberggata", "start_station_latitude": 59.922425, "start_station_longitude": 10.758182, "end_station_id": "573", "end_station_name": "Tordenskiolds gate", "end_station_description": "Mellom R\u00e5dhusplassen og Otto Sverdrups gate", "end_station_latitude": 59.9117882, "end_station_longitude": 10.7351647}, {"started_at": "2019-08-01 08:07:18.246000+00:00", "ended_at": "2019-08-01 08:36:21.084000+00:00", "duration": 1742, "start_station_id": "395", "start_station_name": "Frogner Tennisklubb", "start_station_description": "ved inngangen til tennisbanen", "start_station_latitude": 59.9261831, "start_station_longitude": 10.7098327, "end_station_id": "479", "end_station_name": "Tjuvholmen", "end_station_description": "nedenfor bussholdeplassen", "end_station_latitude": 59.909467, "end_station_longitude": 10.722509}, {"started_at": "2019-08-01 08:07:20.583000+00:00", "ended_at": "2019-08-01 08:14:23.908000+00:00", "duration": 423, "start_station_id": "426", "start_station_name": "Gimle Kino", "start_station_description": "nedenfor Frogner Kirke", "start_station_latitude": 59.917202, "start_station_longitude": 10.708339, "end_station_id": "476", "end_station_name": "Edvard Storms gate", "end_station_description": "ved Pilestredet", "end_station_latitude": 59.919111, "end_station_longitude": 10.736179}, {"started_at": "2019-08-01 08:07:23.218000+00:00", "ended_at": "2019-08-01 08:17:50.285000+00:00", "duration": 627, "start_station_id": "377", "start_station_name": "T\u00f8yenparken", "start_station_description": "ved Caltexl\u00f8kka", "start_station_latitude": 59.915667, "start_station_longitude": 10.7775665, "end_station_id": "437", "end_station_name": "Sentrum Scene", "end_station_description": "ved Arbeidersamfunnets plass", "end_station_latitude": 59.91546786564256, "end_station_longitude": 10.751140873016311}, {"started_at": "2019-08-01 08:07:37.412000+00:00", "ended_at": "2019-08-01 08:12:50.314000+00:00", "duration": 312, "start_station_id": "381", "start_station_name": "Gr\u00f8nlands torg", "start_station_description": "ved T\u00f8yenbekken", "start_station_latitude": 59.91252, "start_station_longitude": 10.76224, "end_station_id": "437", "end_station_name": "Sentrum Scene", "end_station_description": "ved Arbeidersamfunnets plass", "end_station_latitude": 59.91546786564256, "end_station_longitude": 10.751140873016311}, {"started_at": "2019-08-01 08:07:44.058000+00:00", "ended_at": "2019-08-01 08:23:56.761000+00:00", "duration": 972, "start_station_id": "424", "start_station_name": "Birkelunden", "start_station_description": "langs Seilduksgata", "start_station_latitude": 59.9256113, "start_station_longitude": 10.760926, "end_station_id": "480", "end_station_name": "Helga Helgesens plass", "end_station_description": "langs Gr\u00f8nlandsleiret", "end_station_latitude": 59.9121109, "end_station_longitude": 10.7661939}, {"started_at": "2019-08-01 08:07:47.250000+00:00", "ended_at": "2019-08-01 08:16:50.377000+00:00", "duration": 543, "start_station_id": "395", "start_station_name": "Frogner Tennisklubb", "start_station_description": "ved inngangen til tennisbanen", "start_station_latitude": 59.9261831, "start_station_longitude": 10.7098327, "end_station_id": "427", "end_station_name": "Briskeby", "end_station_description": "ved Uranienborg skole", "end_station_latitude": 59.920218, "end_station_longitude": 10.717978}, {"started_at": "2019-08-01 08:08:11.305000+00:00", "ended_at": "2019-08-01 08:16:31.205000+00:00", "duration": 499, "start_station_id": "470", "start_station_name": "St. Hanshaugen park nord", "start_station_description": "krysset Colletts gt / Geitmyrsveien", "start_station_latitude": 59.929771, "start_station_longitude": 10.743524, "end_station_id": "562", "end_station_name": "Slottsparken \u00d8st", "end_station_description": "mellom Wergelandsveien og Holbergs gate", "end_station_latitude": 59.917485, "end_station_longitude": 10.732128}, {"started_at": "2019-08-01 08:08:42.801000+00:00", "ended_at": "2019-08-01 08:18:51.678000+00:00", "duration": 608, "start_station_id": "413", "start_station_name": "Majorstuen", "start_station_description": "utenfor banken i Majorstukrysset", "start_station_latitude": 59.929045, "start_station_longitude": 10.716926, "end_station_id": "407", "end_station_name": "Sagene bussholdeplass", "end_station_description": "ved Gr\u00e5beinsletta", "end_station_latitude": 59.937743, "end_station_longitude": 10.751648}, {"started_at": "2019-08-01 08:08:43.740000+00:00", "ended_at": "2019-08-01 08:11:34.990000+00:00", "duration": 171, "start_station_id": "404", "start_station_name": "Oslo Handelsgymnasium", "start_station_description": "ved Solligata", "start_station_latitude": 59.914306, "start_station_longitude": 10.720202, "end_station_id": "548", "end_station_name": "Colbj\u00f8rnsens gate", "end_station_description": "ved Skovveien", "end_station_latitude": 59.917293, "end_station_longitude": 10.716796}, {"started_at": "2019-08-01 08:08:46.740000+00:00", "ended_at": "2019-08-01 08:37:51.479000+00:00", "duration": 1744, "start_station_id": "526", "start_station_name": "Lille Grensen", "start_station_description": "Ved Akersgata", "start_station_latitude": 59.9138973, "start_station_longitude": 10.7423101, "end_station_id": "412", "end_station_name": "Jakob kirke", "end_station_description": "langs Torggata", "end_station_latitude": 59.917866, "end_station_longitude": 10.754898}, {"started_at": "2019-08-01 08:08:57.272000+00:00", "ended_at": "2019-08-01 08:12:16.464000+00:00", "duration": 199, "start_station_id": "611", "start_station_name": "Bankplassen", "start_station_description": "ved Kirkegata", "start_station_latitude": 59.908454, "start_station_longitude": 10.741869, "end_station_id": "481", "end_station_name": "R\u00e5dhusgata", "end_station_description": "ved Kontraskj\u00e6ret trikkestopp", "end_station_latitude": 59.910924, "end_station_longitude": 10.736215}, {"started_at": "2019-08-01 08:09:13.131000+00:00", "ended_at": "2019-08-01 08:17:07.071000+00:00", "duration": 473, "start_station_id": "400", "start_station_name": "HiOA", "start_station_description": "langs Pilestredet", "start_station_latitude": 59.919927, "start_station_longitude": 10.735428, "end_station_id": "611", "end_station_name": "Bankplassen", "end_station_description": "ved Kirkegata", "end_station_latitude": 59.908454, "end_station_longitude": 10.741869}, {"started_at": "2019-08-01 08:09:32.116000+00:00", "ended_at": "2019-08-01 08:12:00.327000+00:00", "duration": 148, "start_station_id": "469", "start_station_name": "Studentparlamentet", "start_station_description": "ved Frydenlund holdeplass", "start_station_latitude": 59.920852, "start_station_longitude": 10.733357, "end_station_id": "537", "end_station_name": "St. Olavs gate", "end_station_description": "ved Pilestredet", "end_station_latitude": 59.9179859, "end_station_longitude": 10.7385805}, {"started_at": "2019-08-01 08:09:56.498000+00:00", "ended_at": "2019-08-01 08:21:56.021000+00:00", "duration": 719, "start_station_id": "540", "start_station_name": "Lilleborgbanen", "start_station_description": "langs Ole Bulls gate", "start_station_latitude": 59.933727, "start_station_longitude": 10.769094, "end_station_id": "535", "end_station_name": "Uranienborgveien", "end_station_description": "Vest for Slottsparken", "end_station_latitude": 59.9200421, "end_station_longitude": 10.726634}, {"started_at": "2019-08-01 08:10:01.732000+00:00", "ended_at": "2019-08-01 08:18:57.859000+00:00", "duration": 536, "start_station_id": "390", "start_station_name": "Saga Kino", "start_station_description": "i Olav Vs gate", "start_station_latitude": 59.914002, "start_station_longitude": 10.732869, "end_station_id": "396", "end_station_name": "Kirkeristen", "end_station_description": "ved Torggata", "end_station_latitude": 59.913032, "end_station_longitude": 10.746681}, {"started_at": "2019-08-01 08:10:01.779000+00:00", "ended_at": "2019-08-01 08:21:53.605000+00:00", "duration": 711, "start_station_id": "540", "start_station_name": "Lilleborgbanen", "start_station_description": "langs Ole Bulls gate", "start_station_latitude": 59.933727, "start_station_longitude": 10.769094, "end_station_id": "430", "end_station_name": "Spikersuppa Vest", "end_station_description": "mot Stortingsgata", "end_station_latitude": 59.9137965, "end_station_longitude": 10.7358023}, {"started_at": "2019-08-01 08:10:44.935000+00:00", "ended_at": "2019-08-01 08:19:18.203000+00:00", "duration": 513, "start_station_id": "500", "start_station_name": "Anker Hostel", "start_station_description": "ved Storgata", "start_station_latitude": 59.9172794, "start_station_longitude": 10.7581553, "end_station_id": "430", "end_station_name": "Spikersuppa Vest", "end_station_description": "mot Stortingsgata", "end_station_latitude": 59.9137965, "end_station_longitude": 10.7358023}, {"started_at": "2019-08-01 08:10:47.723000+00:00", "ended_at": "2019-08-01 08:28:13.545000+00:00", "duration": 1045, "start_station_id": "420", "start_station_name": "Bj\u00f8lsendumpa", "start_station_description": "langs Treschows gate", "start_station_latitude": 59.94034, "start_station_longitude": 10.766079, "end_station_id": "547", "end_station_name": "Skippergata", "end_station_description": "sidegaten til Karl Johans gate", "end_station_latitude": 59.9112227, "end_station_longitude": 10.7481976}, {"started_at": "2019-08-01 08:10:49.527000+00:00", "ended_at": "2019-08-01 08:15:39.158000+00:00", "duration": 289, "start_station_id": "562", "start_station_name": "Slottsparken \u00d8st", "start_station_description": "mellom Wergelandsveien og Holbergs gate", "start_station_latitude": 59.917485, "start_station_longitude": 10.732128, "end_station_id": "576", "end_station_name": "Dronningens gate", "end_station_description": "Dronningens gate vest for Karl Johan", "end_station_latitude": 59.91138423128484, "end_station_longitude": 10.747318039414154}, {"started_at": "2019-08-01 08:10:55.597000+00:00", "ended_at": "2019-08-01 08:16:31.465000+00:00", "duration": 335, "start_station_id": "440", "start_station_name": "Lakkegata", "start_station_description": "ved Sundtkvartalet", "start_station_latitude": 59.9172088, "start_station_longitude": 10.7622135, "end_station_id": "465", "end_station_name": "Bj\u00f8rvika", "end_station_description": "ved broen under Nylandsveien", "end_station_latitude": 59.909006, "end_station_longitude": 10.75618}, {"started_at": "2019-08-01 08:10:57.065000+00:00", "ended_at": "2019-08-01 08:22:51.292000+00:00", "duration": 714, "start_station_id": "415", "start_station_name": "Sinsenveien", "start_station_description": "ved Kongehellegata", "start_station_latitude": 59.929542, "start_station_longitude": 10.781053, "end_station_id": "472", "end_station_name": "Arendalsgata", "end_station_description": "over veien fra Sagen Kirke", "end_station_latitude": 59.9378, "end_station_longitude": 10.7541}, {"started_at": "2019-08-01 08:10:57.684000+00:00", "ended_at": "2019-08-01 08:18:38.591000+00:00", "duration": 460, "start_station_id": "400", "start_station_name": "HiOA", "start_station_description": "langs Pilestredet", "start_station_latitude": 59.919927, "start_station_longitude": 10.735428, "end_station_id": "464", "end_station_name": "Sukkerbiten", "end_station_description": "ved gangbroen til S\u00f8renga", "end_station_latitude": 59.90580676630004, "end_station_longitude": 10.753656509579287}, {"started_at": "2019-08-01 08:11:22.720000+00:00", "ended_at": "2019-08-01 08:19:03.987000+00:00", "duration": 461, "start_station_id": "378", "start_station_name": "Colosseum Kino", "start_station_description": "langs Fridtjof Nansens vei", "start_station_latitude": 59.929853, "start_station_longitude": 10.711515, "end_station_id": "564", "end_station_name": "Oscars gate", "end_station_description": "ved Hegdehaugsveien", "end_station_latitude": 59.9224222, "end_station_longitude": 10.7272388}, {"started_at": "2019-08-01 08:11:54.851000+00:00", "ended_at": "2019-08-01 08:17:29.581000+00:00", "duration": 334, "start_station_id": "391", "start_station_name": "St. Hanshaugen park vest", "start_station_description": "ved busstoppet Colletts gate", "start_station_latitude": 59.9268706, "start_station_longitude": 10.7384634, "end_station_id": "400", "end_station_name": "HiOA", "end_station_description": "langs Pilestredet", "end_station_latitude": 59.919927, "end_station_longitude": 10.735428}, {"started_at": "2019-08-01 08:12:13.423000+00:00", "ended_at": "2019-08-01 08:14:32.109000+00:00", "duration": 138, "start_station_id": "477", "start_station_name": "M\u00f8llergata", "start_station_description": "rett over Youngstorget", "start_station_latitude": 59.9154413, "start_station_longitude": 10.7485819, "end_station_id": "478", "end_station_name": "Jernbanetorget", "end_station_description": "p\u00e5 Europar\u00e5dets plass", "end_station_latitude": 59.911901, "end_station_longitude": 10.749929}, {"started_at": "2019-08-01 08:12:15.335000+00:00", "ended_at": "2019-08-01 08:16:14.986000+00:00", "duration": 239, "start_station_id": "400", "start_station_name": "HiOA", "start_station_description": "langs Pilestredet", "start_station_latitude": 59.919927, "start_station_longitude": 10.735428, "end_station_id": "535", "end_station_name": "Uranienborgveien", "end_station_description": "Vest for Slottsparken", "end_station_latitude": 59.9200421, "end_station_longitude": 10.726634}, {"started_at": "2019-08-01 08:12:16.579000+00:00", "ended_at": "2019-08-01 08:27:15.174000+00:00", "duration": 898, "start_station_id": "613", "start_station_name": "Schives gate", "start_station_description": "ved Arno Bergs plass", "start_station_latitude": 59.9208044, "start_station_longitude": 10.7140544, "end_station_id": "413", "end_station_name": "Majorstuen", "end_station_description": "utenfor banken i Majorstukrysset", "end_station_latitude": 59.929045, "end_station_longitude": 10.716926}, {"started_at": "2019-08-01 08:12:23.270000+00:00", "ended_at": "2019-08-01 08:18:00.280000+00:00", "duration": 337, "start_station_id": "522", "start_station_name": "Mandalls gate", "start_station_description": "ved Gr\u00f8nlandsleiret", "start_station_latitude": 59.9123469, "start_station_longitude": 10.7638147, "end_station_id": "737", "end_station_name": "Munkegata trikkestopp", "end_station_description": "langs Oslo gate", "end_station_latitude": 59.908255, "end_station_longitude": 10.7678}, {"started_at": "2019-08-01 08:12:51.663000+00:00", "ended_at": "2019-08-01 08:22:29.201000+00:00", "duration": 577, "start_station_id": "500", "start_station_name": "Anker Hostel", "start_station_description": "ved Storgata", "start_station_latitude": 59.9172794, "start_station_longitude": 10.7581553, "end_station_id": "495", "end_station_name": "Vaterlandsparken", "end_station_description": "langs Brugata", "end_station_latitude": 59.913532, "end_station_longitude": 10.757334}, {"started_at": "2019-08-01 08:13:05.636000+00:00", "ended_at": "2019-08-01 08:24:18.486000+00:00", "duration": 672, "start_station_id": "448", "start_station_name": "Oslo Plaza", "start_station_description": "ved rundkj\u00f8ringen", "start_station_latitude": 59.912185, "start_station_longitude": 10.754506, "end_station_id": "398", "end_station_name": "Ringnes Park", "end_station_description": "ved Sannergata", "end_station_latitude": 59.92843404417577, "end_station_longitude": 10.75943014633117}, {"started_at": "2019-08-01 08:13:12.726000+00:00", "ended_at": "2019-08-01 08:59:39.232000+00:00", "duration": 2786, "start_station_id": "620", "start_station_name": "Bislettgata", "start_station_description": "ved Bislett Stadion", "start_station_latitude": 59.9238336, "start_station_longitude": 10.7346377, "end_station_id": "499", "end_station_name": "Bjerregaards gate", "end_station_description": "ovenfor Fredrikke Qvams gate", "end_station_latitude": 59.925488, "end_station_longitude": 10.746058}, {"started_at": "2019-08-01 08:13:15.834000+00:00", "ended_at": "2019-08-01 09:05:27.082000+00:00", "duration": 3131, "start_station_id": "479", "start_station_name": "Tjuvholmen", "start_station_description": "nedenfor bussholdeplassen", "start_station_latitude": 59.909467, "start_station_longitude": 10.722509, "end_station_id": "589", "end_station_name": "Huk", "end_station_description": "ved hovedparkeringen", "end_station_latitude": 59.898126, "end_station_longitude": 10.675096}, {"started_at": "2019-08-01 08:13:18.552000+00:00", "ended_at": "2019-08-01 08:18:33.365000+00:00", "duration": 314, "start_station_id": "602", "start_station_name": "Jarlsborgveien", "start_station_description": "ved Hoffsveien", "start_station_latitude": 59.9304645, "start_station_longitude": 10.6757833, "end_station_id": "559", "end_station_name": "Hoffsveien", "end_station_description": "ved Tingstuveien", "end_station_latitude": 59.923898, "end_station_longitude": 10.6760339}, {"started_at": "2019-08-01 08:13:20.975000+00:00", "ended_at": "2019-08-01 09:10:21.934000+00:00", "duration": 3420, "start_station_id": "542", "start_station_name": "Gr\u00fcnerhagen Nord", "start_station_description": "ved Sofienberggata", "start_station_latitude": 59.9224256, "start_station_longitude": 10.7554274, "end_station_id": "515", "end_station_name": "Olav Vs gate", "end_station_description": "Nord for Kronprinsesse M\u00e4rthas plass", "end_station_latitude": 59.912918, "end_station_longitude": 10.732121}, {"started_at": "2019-08-01 08:13:24.952000+00:00", "ended_at": "2019-08-01 08:23:31.783000+00:00", "duration": 606, "start_station_id": "470", "start_station_name": "St. Hanshaugen park nord", "start_station_description": "krysset Colletts gt / Geitmyrsveien", "start_station_latitude": 59.929771, "start_station_longitude": 10.743524, "end_station_id": "430", "end_station_name": "Spikersuppa Vest", "end_station_description": "mot Stortingsgata", "end_station_latitude": 59.9137965, "end_station_longitude": 10.7358023}, {"started_at": "2019-08-01 08:13:28.155000+00:00", "ended_at": "2019-08-01 08:18:32.903000+00:00", "duration": 304, "start_station_id": "748", "start_station_name": "Hydroparken", "start_station_description": "langs Drammensveien", "start_station_latitude": 59.914145, "start_station_longitude": 10.715505, "end_station_id": "456", "end_station_name": "Frognerstranda", "end_station_description": "ved Kongen Marina", "end_station_latitude": 59.9103558, "end_station_longitude": 10.7051061}, {"started_at": "2019-08-01 08:13:31.398000+00:00", "ended_at": "2019-08-01 08:25:01.856000+00:00", "duration": 690, "start_station_id": "413", "start_station_name": "Majorstuen", "start_station_description": "utenfor banken i Majorstukrysset", "start_station_latitude": 59.929045, "start_station_longitude": 10.716926, "end_station_id": "734", "end_station_name": "Nylandsveien", "end_station_description": "mellom Norbygata og Urtegata", "end_station_latitude": 59.9156603, "end_station_longitude": 10.7622812}, {"started_at": "2019-08-01 08:13:35.774000+00:00", "ended_at": "2019-08-01 08:18:39.504000+00:00", "duration": 303, "start_station_id": "571", "start_station_name": "Over R\u00e5dhusgata", "start_station_description": "i Nedre Slottsgate", "start_station_latitude": 59.9101207, "start_station_longitude": 10.7407129, "end_station_id": "465", "end_station_name": "Bj\u00f8rvika", "end_station_description": "ved broen under Nylandsveien", "end_station_latitude": 59.909006, "end_station_longitude": 10.75618}, {"started_at": "2019-08-01 08:13:36.496000+00:00", "ended_at": "2019-08-01 08:19:04.397000+00:00", "duration": 327, "start_station_id": "435", "start_station_name": "Fram-g\u00e5rden", "start_station_description": "langs Bygd\u00f8y All\u00e9", "start_station_latitude": 59.915424, "start_station_longitude": 10.714577, "end_station_id": "430", "end_station_name": "Spikersuppa Vest", "end_station_description": "mot Stortingsgata", "end_station_latitude": 59.9137965, "end_station_longitude": 10.7358023}, {"started_at": "2019-08-01 08:13:43.750000+00:00", "ended_at": "2019-08-01 09:02:21.696000+00:00", "duration": 2917, "start_station_id": "542", "start_station_name": "Gr\u00fcnerhagen Nord", "start_station_description": "ved Sofienberggata", "start_station_latitude": 59.9224256, "start_station_longitude": 10.7554274, "end_station_id": "494", "end_station_name": "R\u00e5dhusbrygge 4", "end_station_description": "ved Nesoddb\u00e5ten", "end_station_latitude": 59.9108469, "end_station_longitude": 10.7303766}, {"started_at": "2019-08-01 08:13:55.617000+00:00", "ended_at": "2019-08-01 08:22:33.167000+00:00", "duration": 517, "start_station_id": "426", "start_station_name": "Gimle Kino", "start_station_description": "nedenfor Frogner Kirke", "start_station_latitude": 59.917202, "start_station_longitude": 10.708339, "end_station_id": "387", "end_station_name": "Studenterlunden", "end_station_description": "langs Karl Johan", "end_station_latitude": 59.914586, "end_station_longitude": 10.735453}, {"started_at": "2019-08-01 08:14:00.459000+00:00", "ended_at": "2019-08-01 08:27:01.060000+00:00", "duration": 780, "start_station_id": "404", "start_station_name": "Oslo Handelsgymnasium", "start_station_description": "ved Solligata", "start_station_latitude": 59.914306, "start_station_longitude": 10.720202, "end_station_id": "563", "end_station_name": "Huitfeldts gate", "end_station_description": "mellom Cort Adelers gate og Observatoriegata", "end_station_latitude": 59.9126844, "end_station_longitude": 10.7229003}, {"started_at": "2019-08-01 08:14:02.840000+00:00", "ended_at": "2019-08-01 08:19:22.489000+00:00", "duration": 319, "start_station_id": "427", "start_station_name": "Briskeby", "start_station_description": "ved Uranienborg skole", "start_station_latitude": 59.920218, "start_station_longitude": 10.717978, "end_station_id": "426", "end_station_name": "Gimle Kino", "end_station_description": "nedenfor Frogner Kirke", "end_station_latitude": 59.917202, "end_station_longitude": 10.708339}, {"started_at": "2019-08-01 08:14:07.529000+00:00", "ended_at": "2019-08-01 08:18:12.287000+00:00", "duration": 244, "start_station_id": "377", "start_station_name": "T\u00f8yenparken", "start_station_description": "ved Caltexl\u00f8kka", "start_station_latitude": 59.915667, "start_station_longitude": 10.7775665, "end_station_id": "523", "end_station_name": "T\u00f8yenbekken", "end_station_description": "\u00d8st for Gr\u00f8nlands Torg", "end_station_latitude": 59.9115945, "end_station_longitude": 10.7617736}, {"started_at": "2019-08-01 08:14:25.872000+00:00", "ended_at": "2019-08-01 09:01:51.513000+00:00", "duration": 2845, "start_station_id": "542", "start_station_name": "Gr\u00fcnerhagen Nord", "start_station_description": "ved Sofienberggata", "start_station_latitude": 59.9224256, "start_station_longitude": 10.7554274, "end_station_id": "494", "end_station_name": "R\u00e5dhusbrygge 4", "end_station_description": "ved Nesoddb\u00e5ten", "end_station_latitude": 59.9108469, "end_station_longitude": 10.7303766}, {"started_at": "2019-08-01 08:14:50.662000+00:00", "ended_at": "2019-08-01 08:20:05.489000+00:00", "duration": 314, "start_station_id": "500", "start_station_name": "Anker Hostel", "start_station_description": "ved Storgata", "start_station_latitude": 59.9172794, "start_station_longitude": 10.7581553, "end_station_id": "523", "end_station_name": "T\u00f8yenbekken", "end_station_description": "\u00d8st for Gr\u00f8nlands Torg", "end_station_latitude": 59.9115945, "end_station_longitude": 10.7617736}, {"started_at": "2019-08-01 08:15:31.564000+00:00", "ended_at": "2019-08-01 08:34:11.556000+00:00", "duration": 1119, "start_station_id": "502", "start_station_name": "Ullev\u00e5l sykehus", "start_station_description": "i Kirkeveien", "start_station_latitude": 59.9360307, "start_station_longitude": 10.7364516, "end_station_id": "479", "end_station_name": "Tjuvholmen", "end_station_description": "nedenfor bussholdeplassen", "end_station_latitude": 59.909467, "end_station_longitude": 10.722509}, {"started_at": "2019-08-01 08:15:34.205000+00:00", "ended_at": "2019-08-01 08:22:21.734000+00:00", "duration": 407, "start_station_id": "551", "start_station_name": "Olaf Ryes plass", "start_station_description": "ved Sofienberggata", "start_station_latitude": 59.922425, "start_station_longitude": 10.758182, "end_station_id": "599", "end_station_name": "Pal\u00e9haven", "end_station_description": "langs Strandgata", "end_station_latitude": 59.910331, "end_station_longitude": 10.75011}, {"started_at": "2019-08-01 08:15:45.364000+00:00", "ended_at": "2019-08-01 08:28:03.235000+00:00", "duration": 737, "start_station_id": "404", "start_station_name": "Oslo Handelsgymnasium", "start_station_description": "ved Solligata", "start_station_latitude": 59.914306, "start_station_longitude": 10.720202, "end_station_id": "464", "end_station_name": "Sukkerbiten", "end_station_description": "ved gangbroen til S\u00f8renga", "end_station_latitude": 59.90580676630004, "end_station_longitude": 10.753656509579287}, {"started_at": "2019-08-01 08:16:04.955000+00:00", "ended_at": "2019-08-01 08:22:38.543000+00:00", "duration": 393, "start_station_id": "540", "start_station_name": "Lilleborgbanen", "start_station_description": "langs Ole Bulls gate", "start_station_latitude": 59.933727, "start_station_longitude": 10.769094, "end_station_id": "582", "end_station_name": "Stavangergata", "end_station_description": "ved Uelands gate", "end_station_latitude": 59.941108, "end_station_longitude": 10.7506048}, {"started_at": "2019-08-01 08:16:14.243000+00:00", "ended_at": "2019-08-01 08:38:05.553000+00:00", "duration": 1311, "start_station_id": "418", "start_station_name": "Norsk Folkemuseum", "start_station_description": "utenfor inngangen", "start_station_latitude": 59.907674, "start_station_longitude": 10.686843, "end_station_id": "430", "end_station_name": "Spikersuppa Vest", "end_station_description": "mot Stortingsgata", "end_station_latitude": 59.9137965, "end_station_longitude": 10.7358023}, {"started_at": "2019-08-01 08:16:30.872000+00:00", "ended_at": "2019-08-01 08:23:55.457000+00:00", "duration": 444, "start_station_id": "463", "start_station_name": "Schous plass trikkestopp", "start_station_description": "ved biblioteket", "start_station_latitude": 59.9207284, "start_station_longitude": 10.7594857, "end_station_id": "396", "end_station_name": "Kirkeristen", "end_station_description": "ved Torggata", "end_station_latitude": 59.913032, "end_station_longitude": 10.746681}, {"started_at": "2019-08-01 08:16:31.429000+00:00", "ended_at": "2019-08-01 09:05:16.354000+00:00", "duration": 2924, "start_station_id": "479", "start_station_name": "Tjuvholmen", "start_station_description": "nedenfor bussholdeplassen", "start_station_latitude": 59.909467, "start_station_longitude": 10.722509, "end_station_id": "589", "end_station_name": "Huk", "end_station_description": "ved hovedparkeringen", "end_station_latitude": 59.898126, "end_station_longitude": 10.675096}, {"started_at": "2019-08-01 08:16:37.813000+00:00", "ended_at": "2019-08-01 08:38:02.575000+00:00", "duration": 1284, "start_station_id": "418", "start_station_name": "Norsk Folkemuseum", "start_station_description": "utenfor inngangen", "start_station_latitude": 59.907674, "start_station_longitude": 10.686843, "end_station_id": "430", "end_station_name": "Spikersuppa Vest", "end_station_description": "mot Stortingsgata", "end_station_latitude": 59.9137965, "end_station_longitude": 10.7358023}, {"started_at": "2019-08-01 08:16:42.708000+00:00", "ended_at": "2019-08-01 08:20:34.737000+00:00", "duration": 232, "start_station_id": "407", "start_station_name": "Sagene bussholdeplass", "start_station_description": "ved Gr\u00e5beinsletta", "start_station_latitude": 59.937743, "start_station_longitude": 10.751648, "end_station_id": "502", "end_station_name": "Ullev\u00e5l sykehus", "end_station_description": "i Kirkeveien", "end_station_latitude": 59.9360307, "end_station_longitude": 10.7364516}, {"started_at": "2019-08-01 08:17:03.797000+00:00", "ended_at": "2019-08-01 08:23:47.762000+00:00", "duration": 403, "start_station_id": "503", "start_station_name": "Fagerheimgata", "start_station_description": "ved D\u00e6lenenga Busstopp", "start_station_latitude": 59.9274634, "start_station_longitude": 10.7657433, "end_station_id": "599", "end_station_name": "Pal\u00e9haven", "end_station_description": "langs Strandgata", "end_station_latitude": 59.910331, "end_station_longitude": 10.75011}, {"started_at": "2019-08-01 08:17:14.382000+00:00", "ended_at": "2019-08-01 08:22:01.071000+00:00", "duration": 286, "start_station_id": "542", "start_station_name": "Gr\u00fcnerhagen Nord", "start_station_description": "ved Sofienberggata", "start_station_latitude": 59.9224256, "start_station_longitude": 10.7554274, "end_station_id": "437", "end_station_name": "Sentrum Scene", "end_station_description": "ved Arbeidersamfunnets plass", "end_station_latitude": 59.91546786564256, "end_station_longitude": 10.751140873016311}, {"started_at": "2019-08-01 08:17:16.424000+00:00", "ended_at": "2019-08-01 08:31:54.169000+00:00", "duration": 877, "start_station_id": "480", "start_station_name": "Helga Helgesens plass", "start_station_description": "langs Gr\u00f8nlandsleiret", "start_station_latitude": 59.9121109, "start_station_longitude": 10.7661939, "end_station_id": "558", "end_station_name": "Dokkveien", "end_station_description": "ved St\u00f8perigata", "end_station_latitude": 59.910974, "end_station_longitude": 10.7277001}, {"started_at": "2019-08-01 08:17:16.670000+00:00", "ended_at": "2019-08-01 08:34:10.633000+00:00", "duration": 1013, "start_station_id": "460", "start_station_name": "Botanisk Hage s\u00f8r", "start_station_description": "langs Jens Bjelkes gate", "start_station_latitude": 59.9152819, "start_station_longitude": 10.7696199, "end_station_id": "460", "end_station_name": "Botanisk Hage s\u00f8r", "end_station_description": "langs Jens Bjelkes gate", "end_station_latitude": 59.9152819, "end_station_longitude": 10.7696199}, {"started_at": "2019-08-01 08:17:40.176000+00:00", "ended_at": "2019-08-01 08:27:22.362000+00:00", "duration": 582, "start_station_id": "739", "start_station_name": "Hammersborg Torg", "start_station_description": "i M\u00f8llergata", "start_station_latitude": 59.916536, "start_station_longitude": 10.749162, "end_station_id": "563", "end_station_name": "Huitfeldts gate", "end_station_description": "mellom Cort Adelers gate og Observatoriegata", "end_station_latitude": 59.9126844, "end_station_longitude": 10.7229003}, {"started_at": "2019-08-01 08:17:46.107000+00:00", "ended_at": "2019-08-01 08:32:56.543000+00:00", "duration": 910, "start_station_id": "540", "start_station_name": "Lilleborgbanen", "start_station_description": "langs Ole Bulls gate", "start_station_latitude": 59.933727, "start_station_longitude": 10.769094, "end_station_id": "599", "end_station_name": "Pal\u00e9haven", "end_station_description": "langs Strandgata", "end_station_latitude": 59.910331, "end_station_longitude": 10.75011}, {"started_at": "2019-08-01 08:17:47.128000+00:00", "ended_at": "2019-08-01 08:19:51.538000+00:00", "duration": 124, "start_station_id": "521", "start_station_name": "Jess Carlsens gate", "start_station_description": "Ved Hausmanns gate", "start_station_latitude": 59.9186359, "start_station_longitude": 10.7523939, "end_station_id": "489", "end_station_name": "Torggata", "end_station_description": "ved Bernt Ankers gate", "end_station_latitude": 59.916012, "end_station_longitude": 10.751655}, {"started_at": "2019-08-01 08:18:03.495000+00:00", "ended_at": "2019-08-01 08:27:18.805000+00:00", "duration": 555, "start_station_id": "737", "start_station_name": "Munkegata trikkestopp", "start_station_description": "langs Oslo gate", "start_station_latitude": 59.908255, "start_station_longitude": 10.7678, "end_station_id": "437", "end_station_name": "Sentrum Scene", "end_station_description": "ved Arbeidersamfunnets plass", "end_station_latitude": 59.91546786564256, "end_station_longitude": 10.751140873016311}, {"started_at": "2019-08-01 08:18:09.166000+00:00", "ended_at": "2019-08-01 09:07:36.044000+00:00", "duration": 2966, "start_station_id": "484", "start_station_name": "Karenlyst all\u00e9", "start_station_description": "utenfor Handelsbanken", "start_station_latitude": 59.92033, "start_station_longitude": 10.683814, "end_station_id": "484", "end_station_name": "Karenlyst all\u00e9", "end_station_description": "utenfor Handelsbanken", "end_station_latitude": 59.92033, "end_station_longitude": 10.683814}, {"started_at": "2019-08-01 08:18:11.419000+00:00", "ended_at": "2019-08-01 08:32:46.354000+00:00", "duration": 874, "start_station_id": "396", "start_station_name": "Kirkeristen", "start_station_description": "ved Torggata", "start_station_latitude": 59.913032, "start_station_longitude": 10.746681, "end_station_id": "564", "end_station_name": "Oscars gate", "end_station_description": "ved Hegdehaugsveien", "end_station_latitude": 59.9224222, "end_station_longitude": 10.7272388}, {"started_at": "2019-08-01 08:18:16.001000+00:00", "ended_at": "2019-08-01 08:32:55.765000+00:00", "duration": 879, "start_station_id": "396", "start_station_name": "Kirkeristen", "start_station_description": "ved Torggata", "start_station_latitude": 59.913032, "start_station_longitude": 10.746681, "end_station_id": "564", "end_station_name": "Oscars gate", "end_station_description": "ved Hegdehaugsveien", "end_station_latitude": 59.9224222, "end_station_longitude": 10.7272388}, {"started_at": "2019-08-01 08:18:20.285000+00:00", "ended_at": "2019-08-01 08:28:54.429000+00:00", "duration": 634, "start_station_id": "552", "start_station_name": "Trelastgata", "start_station_description": "ved Kong H\u00e5kon 5s gate", "start_station_latitude": 59.907967, "start_station_longitude": 10.762621, "end_station_id": "494", "end_station_name": "R\u00e5dhusbrygge 4", "end_station_description": "ved Nesoddb\u00e5ten", "end_station_latitude": 59.9108469, "end_station_longitude": 10.7303766}, {"started_at": "2019-08-01 08:18:34.157000+00:00", "ended_at": "2019-08-01 08:36:02.683000+00:00", "duration": 1048, "start_station_id": "427", "start_station_name": "Briskeby", "start_station_description": "ved Uranienborg skole", "start_station_latitude": 59.920218, "start_station_longitude": 10.717978, "end_station_id": "479", "end_station_name": "Tjuvholmen", "end_station_description": "nedenfor bussholdeplassen", "end_station_latitude": 59.909467, "end_station_longitude": 10.722509}, {"started_at": "2019-08-01 08:18:38.897000+00:00", "ended_at": "2019-08-01 08:24:56.670000+00:00", "duration": 377, "start_station_id": "410", "start_station_name": "Landstads gate", "start_station_description": "ved Uelands gate", "start_station_latitude": 59.929005, "start_station_longitude": 10.7496755, "end_station_id": "384", "end_station_name": "V\u00e5r Frelsers gravlund s\u00f8r", "end_station_description": "langs Ullev\u00e5lsveien", "end_station_latitude": 59.919463, "end_station_longitude": 10.743829}, {"started_at": "2019-08-01 08:18:41.396000+00:00", "ended_at": "2019-08-01 08:22:59.069000+00:00", "duration": 257, "start_station_id": "620", "start_station_name": "Bislettgata", "start_station_description": "ved Bislett Stadion", "start_station_latitude": 59.9238336, "start_station_longitude": 10.7346377, "end_station_id": "421", "end_station_name": "Alexander Kiellands Plass", "end_station_description": "ved Maridalsveien", "end_station_latitude": 59.928058, "end_station_longitude": 10.751397}, {"started_at": "2019-08-01 08:18:53.497000+00:00", "ended_at": "2019-08-01 10:02:29.073000+00:00", "duration": 6215, "start_station_id": "396", "start_station_name": "Kirkeristen", "start_station_description": "ved Torggata", "start_station_latitude": 59.913032, "start_station_longitude": 10.746681, "end_station_id": "576", "end_station_name": "Dronningens gate", "end_station_description": "Dronningens gate vest for Karl Johan", "end_station_latitude": 59.91138423128484, "end_station_longitude": 10.747318039414154}, {"started_at": "2019-08-01 08:19:08.880000+00:00", "ended_at": "2019-08-01 08:24:23.096000+00:00", "duration": 314, "start_station_id": "463", "start_station_name": "Schous plass trikkestopp", "start_station_description": "ved biblioteket", "start_station_latitude": 59.9207284, "start_station_longitude": 10.7594857, "end_station_id": "437", "end_station_name": "Sentrum Scene", "end_station_description": "ved Arbeidersamfunnets plass", "end_station_latitude": 59.91546786564256, "end_station_longitude": 10.751140873016311}, {"started_at": "2019-08-01 08:19:17.289000+00:00", "ended_at": "2019-08-01 08:23:38.374000+00:00", "duration": 261, "start_station_id": "384", "start_station_name": "V\u00e5r Frelsers gravlund s\u00f8r", "start_station_description": "langs Ullev\u00e5lsveien", "start_station_latitude": 59.919463, "start_station_longitude": 10.743829, "end_station_id": "495", "end_station_name": "Vaterlandsparken", "end_station_description": "langs Brugata", "end_station_latitude": 59.913532, "end_station_longitude": 10.757334}, {"started_at": "2019-08-01 08:19:19.856000+00:00", "ended_at": "2019-08-01 08:33:05.499000+00:00", "duration": 825, "start_station_id": "402", "start_station_name": "L\u00f8renveien", "start_station_description": "under L\u00f8renparken", "start_station_latitude": 59.93087712510462, "start_station_longitude": 10.791823716034969, "end_station_id": "551", "end_station_name": "Olaf Ryes plass", "end_station_description": "ved Sofienberggata", "end_station_latitude": 59.922425, "end_station_longitude": 10.758182}, {"started_at": "2019-08-01 08:19:22.309000+00:00", "ended_at": "2019-08-01 09:49:50.420000+00:00", "duration": 5428, "start_station_id": "603", "start_station_name": "Frogner plass", "start_station_description": "i rundkj\u00f8ringen", "start_station_latitude": 59.9225392, "start_station_longitude": 10.7045406, "end_station_id": "537", "end_station_name": "St. Olavs gate", "end_station_description": "ved Pilestredet", "end_station_latitude": 59.9179859, "end_station_longitude": 10.7385805}, {"started_at": "2019-08-01 08:19:29.991000+00:00", "ended_at": "2019-08-01 08:25:18.494000+00:00", "duration": 348, "start_station_id": "581", "start_station_name": "Jordalgata", "start_station_description": "mellom bussholdeplassene p\u00e5 Galgeberg", "start_station_latitude": 59.908227, "start_station_longitude": 10.781088, "end_station_id": "569", "end_station_name": "Botanisk hage s\u00f8r-vest", "end_station_description": "ved Sars' gate", "end_station_latitude": 59.9177943, "end_station_longitude": 10.7662784}, {"started_at": "2019-08-01 08:19:34.960000+00:00", "ended_at": "2019-08-01 08:25:31.144000+00:00", "duration": 356, "start_station_id": "446", "start_station_name": "Bislett Stadion", "start_station_description": "ved rundkj\u00f8ringen", "start_station_latitude": 59.92549, "start_station_longitude": 10.731288, "end_station_id": "499", "end_station_name": "Bjerregaards gate", "end_station_description": "ovenfor Fredrikke Qvams gate", "end_station_latitude": 59.925488, "end_station_longitude": 10.746058}, {"started_at": "2019-08-01 08:19:44.852000+00:00", "ended_at": "2019-08-01 08:31:36.206000+00:00", "duration": 711, "start_station_id": "735", "start_station_name": "Oslo Hospital", "start_station_description": "ved trikkestoppet", "start_station_latitude": 59.9031036, "start_station_longitude": 10.7673282, "end_station_id": "526", "end_station_name": "Lille Grensen", "end_station_description": "Ved Akersgata", "end_station_latitude": 59.9138973, "end_station_longitude": 10.7423101}, {"started_at": "2019-08-01 08:19:52.374000+00:00", "ended_at": "2019-08-01 09:03:25.453000+00:00", "duration": 2613, "start_station_id": "542", "start_station_name": "Gr\u00fcnerhagen Nord", "start_station_description": "ved Sofienberggata", "start_station_latitude": 59.9224256, "start_station_longitude": 10.7554274, "end_station_id": "494", "end_station_name": "R\u00e5dhusbrygge 4", "end_station_description": "ved Nesoddb\u00e5ten", "end_station_latitude": 59.9108469, "end_station_longitude": 10.7303766}, {"started_at": "2019-08-01 08:20:14.592000+00:00", "ended_at": "2019-08-01 08:22:45.551000+00:00", "duration": 150, "start_station_id": "446", "start_station_name": "Bislett Stadion", "start_station_description": "ved rundkj\u00f8ringen", "start_station_latitude": 59.92549, "start_station_longitude": 10.731288, "end_station_id": "389", "end_station_name": "Pilestredet Studenthus", "end_station_description": "ved Stensberggata", "end_station_latitude": 59.9205528, "end_station_longitude": 10.7342854}, {"started_at": "2019-08-01 08:20:24.867000+00:00", "ended_at": "2019-08-01 08:30:25.315000+00:00", "duration": 600, "start_station_id": "480", "start_station_name": "Helga Helgesens plass", "start_station_description": "langs Gr\u00f8nlandsleiret", "start_station_latitude": 59.9121109, "start_station_longitude": 10.7661939, "end_station_id": "611", "end_station_name": "Bankplassen", "end_station_description": "ved Kirkegata", "end_station_latitude": 59.908454, "end_station_longitude": 10.741869}, {"started_at": "2019-08-01 08:20:27.764000+00:00", "ended_at": "2019-08-01 08:38:39.024000+00:00", "duration": 1091, "start_station_id": "582", "start_station_name": "Stavangergata", "start_station_description": "ved Uelands gate", "start_station_latitude": 59.941108, "start_station_longitude": 10.7506048, "end_station_id": "611", "end_station_name": "Bankplassen", "end_station_description": "ved Kirkegata", "end_station_latitude": 59.908454, "end_station_longitude": 10.741869}, {"started_at": "2019-08-01 08:20:29.085000+00:00", "ended_at": "2019-08-01 08:26:55.843000+00:00", "duration": 386, "start_station_id": "410", "start_station_name": "Landstads gate", "start_station_description": "ved Uelands gate", "start_station_latitude": 59.929005, "start_station_longitude": 10.7496755, "end_station_id": "739", "end_station_name": "Hammersborg Torg", "end_station_description": "i M\u00f8llergata", "end_station_latitude": 59.916536, "end_station_longitude": 10.749162}, {"started_at": "2019-08-01 08:20:34.611000+00:00", "ended_at": "2019-08-01 08:26:03.566000+00:00", "duration": 328, "start_station_id": "535", "start_station_name": "Uranienborgveien", "start_station_description": "Vest for Slottsparken", "start_station_latitude": 59.9200421, "start_station_longitude": 10.726634, "end_station_id": "430", "end_station_name": "Spikersuppa Vest", "end_station_description": "mot Stortingsgata", "end_station_latitude": 59.9137965, "end_station_longitude": 10.7358023}, {"started_at": "2019-08-01 08:20:37.024000+00:00", "ended_at": "2019-08-01 08:27:36.853000+00:00", "duration": 419, "start_station_id": "413", "start_station_name": "Majorstuen", "start_station_description": "utenfor banken i Majorstukrysset", "start_station_latitude": 59.929045, "start_station_longitude": 10.716926, "end_station_id": "466", "end_station_name": "Ullev\u00e5lsall\u00e9en", "end_station_description": "langs Sognsveien", "end_station_latitude": 59.937913, "end_station_longitude": 10.73048}, {"started_at": "2019-08-01 08:20:38.477000+00:00", "ended_at": "2019-08-01 08:28:15.988000+00:00", "duration": 457, "start_station_id": "584", "start_station_name": "Henrik Wergelands all\u00e9", "start_station_description": "ved Bogstadveien", "start_station_latitude": 59.9268942, "start_station_longitude": 10.7207894, "end_station_id": "430", "end_station_name": "Spikersuppa Vest", "end_station_description": "mot Stortingsgata", "end_station_latitude": 59.9137965, "end_station_longitude": 10.7358023}, {"started_at": "2019-08-01 08:20:40.035000+00:00", "ended_at": "2019-08-01 09:49:20.132000+00:00", "duration": 5320, "start_station_id": "603", "start_station_name": "Frogner plass", "start_station_description": "i rundkj\u00f8ringen", "start_station_latitude": 59.9225392, "start_station_longitude": 10.7045406, "end_station_id": "537", "end_station_name": "St. Olavs gate", "end_station_description": "ved Pilestredet", "end_station_latitude": 59.9179859, "end_station_longitude": 10.7385805}, {"started_at": "2019-08-01 08:21:01.348000+00:00", "ended_at": "2019-08-01 08:24:21.228000+00:00", "duration": 199, "start_station_id": "398", "start_station_name": "Ringnes Park", "start_station_description": "ved Sannergata", "start_station_latitude": 59.92843404417577, "start_station_longitude": 10.75943014633117, "end_station_id": "542", "end_station_name": "Gr\u00fcnerhagen Nord", "end_station_description": "ved Sofienberggata", "end_station_latitude": 59.9224256, "end_station_longitude": 10.7554274}, {"started_at": "2019-08-01 08:21:05.541000+00:00", "ended_at": "2019-08-01 08:26:20.520000+00:00", "duration": 314, "start_station_id": "608", "start_station_name": "Colletts gate", "start_station_description": "ved Diriks gate", "start_station_latitude": 59.9307367, "start_station_longitude": 10.746379, "end_station_id": "432", "end_station_name": "St. Hanshaugen park s\u00f8r", "end_station_description": "ved dammen", "end_station_latitude": 59.924821, "end_station_longitude": 10.739909},